Unnamed: 0,City,Country,Year,TotalEmissions,Longitude,Latitude,Account Number,Population,LandArea(sqkm),HDI,GINI,Overall Score (GDP),Property Rights,Government Integrity,Judicial Effectiveness,Tax Burden,Government Spending,Fiscal Health,Business Freedom,Labor Freedom,Monetary Freedom,Trade Freedom,Investment Freedom,Financial Freedom,Country_Code
508,Piacenza,Italy,2005,615452.0,9.6865813,45.04737539999999,36495,103105.5,118.0,0.8792333333333334,34.82666666666667,62.27333333333334,60.29333333333332,44.94333333333334,56.86666666666665,53.99666666666667,25.08333333333333,67.24666666666666,72.64333333333335,58.14000000000001,83.11666666666666,85.57333333333332,79.83333333333333,59.66666666666666,ITA
269,Winnipeg,Canada,2005,5257325.0,-97.13749370000001,49.8997541,50579,723825.0,464.0,0.903,33.29402985074626,80.8,90.0,87.0,77.0816091954023,78.0,52.7,81.20804597701147,96.4,81.7,78.8,88.1,75.0,80.0,CAN
1228,Caracas,Venezuela,2005,986450.0,-66.8037185,10.4696404,31159,3518590.0,776.0,0.7725000000000001,38.87940929917293,36.075,5.0,18.625,67.76822911104446,75.225,54.925,64.32249647213447,44.6,30.875,46.7,61.375,3.75,20.0,VEN
167,São Paulo,Brazil,2005,15115000.0,-46.6333094,-23.5505199,31184,5632378.2515,3694.751717089304,0.695,57.6,63.4,50.0,40.0,49.7,90.2,82.7,22.8,70.0,57.5,78.6,59.0,50.0,50.0,BRA
189,Florianópolis,Brazil,2005,441664.0,-48.54817429999999,-27.59498839999999,50384,522500.0,438.0,0.698,56.5,62.0,50.0,40.0,50.88260869565219,90.2,68.1,18.70434782608696,70.0,57.2,77.2,62.8,50.0,50.0,BRA
649,Porto,Portugal,2005,1300000.0,-8.6291053,41.1579438,46514,238272.5,42.0,0.809,38.9,64.9,70.0,63.0,68.9,62.3,36.2,32.1,70.0,42.525,82.9,79.8,70.0,50.0,PRT
123,Sydney,Australia,2005,5457064.0,151.2069902,-33.8674869,31114,227878.8,26.0,0.906,34.48571428571428,79.0,90.0,88.0,90.93333333333334,59.1,60.9,85.03333333333332,85.0,85.8,84.0,77.2,70.0,90.0,AUS
164,Rio de Janeiro,Brazil,2005,11351700.0,-43.1970773,-22.9082998,31176,6498578.0,1224.6,0.7,56.3,61.7,50.0,39.0,49.7,86.2,69.9,22.8,70.0,64.6,72.7,65.2,50.0,50.0,BRA
469,Jakarta,Indonesia,2005,43860000.0,106.845599,-6.2087634,31166,10216080.5,662.0,0.632,33.0,52.9,30.0,19.0,39.3,77.5,90.0,90.1,55.0,49.1,71.7,77.2,30.0,30.0,IDN
486,Comune di Torino,Italy,2005,5065364.0,7.6868565,45.070312,35886,885408.6,130.0,0.865,33.8,64.9,70.0,53.0,55.4,49.6,27.4,66.9,70.0,74.5,84.7,80.2,70.0,70.0,ITA
489,Comune di Napoli,Italy,2005,2913435.0,-81.7948103,26.1420358,36158,983755.0,3694.751717089304,0.865,33.8,64.9,70.0,53.0,56.86666666666665,49.6,27.4,67.24666666666666,70.0,74.5,84.7,80.2,70.0,70.0,ITA
491,Oristano,Italy,2005,154534.0,8.588777,39.9094132,36252,31630.0,3694.751717089304,0.865,33.8,64.9,70.0,53.0,56.86666666666665,49.6,27.4,67.24666666666666,70.0,74.5,84.7,80.2,70.0,70.0,ITA
492,Venezia,Italy,2005,1418344.0,12.3155151,45.4408474,36254,261169.75,414.0,0.865,33.8,64.9,70.0,53.0,60.9,49.6,27.4,68.2,70.0,74.5,84.7,80.2,70.0,70.0,ITA
497,Genova,Italy,2005,2376739.0,9.318414500000001,44.3479608,36262,582563.6,1118.0,0.865,33.8,64.9,70.0,53.0,56.86666666666665,49.6,27.4,67.24666666666666,70.0,74.5,84.7,80.2,70.0,70.0,ITA
506,Padova,Italy,2005,1892158.0,11.8783489,45.411639,36494,210825.0,3694.751717089304,0.865,33.8,64.9,70.0,53.0,55.4,49.6,27.4,66.9,70.0,74.5,84.7,80.2,70.0,70.0,ITA
1074,Eugene,United States,2005,1250000.0,-123.0867,44.0519,54070,162773.3333333333,113.0,0.9,41.0,79.9,90.0,75.0,76.85,68.6,60.0,53.2,85.0,95.4,85.7,79.8,70.0,90.0,USA
1152,"University City, MO",United States,2005,501147.0,-90.3325,38.6682,58628,35371.0,15.3,0.9,41.0,79.9,90.0,75.0,76.50288600288599,68.6,60.0,54.01551226551214,85.0,95.4,85.7,79.8,70.0,90.0,USA
124,Sydney,Australia,2006,5457064.0,151.2069902,-33.8674869,31114,227878.8,26.0,0.909,34.48571428571428,79.9,90.0,88.0,90.93333333333334,58.9,62.2,85.03333333333332,90.9,86.5,85.0,77.4,70.0,90.0,AUS
657,Santarem,Portugal,2006,331717.0,-8.685994,39.236669,50672,61476.0,553.0,0.811,38.1,62.9,70.0,63.0,69.25714285714285,64.0,29.7,42.73571428571429,73.3,42.2,84.4,82.4,70.0,50.0,PRT
820,Pingtung County,Taiwan,2006,411260.0,120.54876,22.551976,57347,829113.6,2775.0,0.869885505257732,38.87940929917293,69.7,70.0,56.0,69.2,75.8,84.0,90.8,73.0,47.3,88.8,81.8,70.0,50.0,TWN
945,Washington DC,United States,2006,10500000.0,-77.03687070000001,38.9071923,31090,690274.4,158.0,0.903,41.4,81.2,90.0,75.0,76.0,68.9,61.1,54.05,93.2,97.8,85.0,81.4,70.0,90.0,USA
999,Miami,United States,2006,4762364.27,-80.20404350000001,25.7890972,35870,469438.5,3694.751717089304,0.903,41.4,81.2,90.0,75.0,76.50288600288599,68.9,61.1,54.01551226551214,93.2,97.8,85.0,81.4,70.0,90.0,USA
1226,Montevideo,Uruguay,2006,4242000.0,-56.1645314,-34.90111270000001,42388,692406283.0,3694.751717089304,0.763,45.9,65.3,70.0,62.0,67.76822911104446,86.1,45.8,64.32249647213447,63.9,76.3,73.0,76.4,70.0,30.0,URY
434,Athens,Greece,2007,4471000.0,23.727539,37.98381,31149,664046.0,39.0,0.857,34.0,58.7,50.0,43.0,57.55,62.4,53.4,64.3,69.7,58.0,78.4,81.6,50.0,40.0,GRC
504,Ferrara,Italy,2007,1582605.13,11.6189949,44.8357395,36286,132582.0,404.0,0.874,32.9,62.8,50.0,50.0,56.86666666666665,52.8,31.5,67.24666666666666,77.0,74.4,80.5,81.6,70.0,60.0,ITA
634,Warsaw,Poland,2007,10727200.0,21.0122287,52.2296756,31185,1695805.75,517.0,0.824,34.0,58.1,50.0,34.0,58.0,68.6,44.8,76.1,55.3,61.4,80.3,86.6,50.0,50.0,POL
654,Seixal,Portugal,2007,415526.0,-46.58287670000001,-23.4266216,50667,3041410.942493827,3694.751717089304,0.814,36.8,64.0,70.0,65.0,69.25714285714285,62.3,35.4,42.73571428571429,78.6,41.5,80.4,86.6,70.0,50.0,PRT
706,Cape Town,South Africa,2007,20550175.0,18.4240553,-33.9248685,35858,4145917.2,2461.0,0.632,63.10000000000001,63.5,50.0,45.0,62.8,69.7,79.2,72.3,70.4,58.5,78.8,73.8,50.0,60.0,ZAF
952,Houston,United States,2007,37031473.0,-95.36938959999999,29.7601927,31108,2302199.6,1625.0,0.906,40.8,81.2,90.0,76.0,78.6,69.0,60.3,53.1,91.4,94.7,83.8,86.6,80.0,80.0,USA
1077,Lakewood,United States,2007,1727870.0,-105.0814,39.7047,54075,153620.0,114.0,0.906,40.8,81.2,90.0,76.0,76.9,69.0,60.3,54.8,91.4,94.7,83.8,86.6,80.0,80.0,USA
1128,"Lake Forest, IL",United States,2007,402364.0,-87.840625,42.258634,57616,19455.0,45.0,0.906,40.8,81.2,90.0,76.0,76.50288600288599,69.0,60.3,54.01551226551214,91.4,94.7,83.8,86.6,80.0,80.0,USA
161,Curitiba,Brazil,2008,3515890.0,-62.7288829,8.309021000000001,31156,1822952.0,434.0,0.717,54.0,56.2,50.0,33.0,50.88260869565219,68.6,55.5,18.70434782608696,54.0,63.9,75.7,70.8,50.0,40.0,BRA
213,Vancouver,Canada,2008,2800000.0,-123.1139268,49.261226,20113,631418.0,115.0,0.898,33.5,80.2,90.0,85.0,75.76666666666667,75.5,53.7,81.53333333333333,96.7,82.7,81.0,87.0,70.0,80.0,CAN
221,Toronto,Canada,2008,25100000.0,-79.3831843,43.653226,31117,2833632.0,634.0,0.898,33.3,80.2,90.0,85.0,77.1,75.5,53.7,81.2,96.7,82.7,81.0,87.0,70.0,80.0,CAN
284,"Ajax, ON",Canada,2008,538836.0,-79.02037299999999,43.850855,60602,114638.5,67.1,0.898,33.2,80.2,90.0,85.0,77.0816091954023,75.5,53.7,81.20804597701147,96.7,82.7,81.0,87.0,70.0,80.0,CAN
410,Berlin,Germany,2008,20764000.0,13.404954,52.5200066,31153,3644899.0,3694.751717089304,0.924,31.1,70.6,90.0,80.0,79.5,58.4,34.0,89.9,89.9,46.3,81.4,86.0,80.0,60.0,DEU
518,Yokohama,Japan,2008,19787000.0,139.6380256,35.4437078,31113,12136443.25,437.0,0.883,34.8,73.0,70.0,76.0,73.5,70.3,56.2,29.4,88.1,85.1,94.3,80.0,60.0,50.0,JPN
655,Fafe,Portugal,2008,179262.0,-8.172861900000001,41.4508217,50671,49992.0,219.0,0.817,36.6,63.9,70.0,66.0,69.25714285714285,61.3,32.6,42.73571428571429,80.5,43.1,79.4,86.0,70.0,50.0,PRT
943,Seattle,United States,2008,7042000.0,-122.3320708,47.6062095,16581,705538.0,3692.0,0.911,40.8,81.0,90.0,73.0,76.50288600288599,68.3,59.8,54.01551226551214,92.6,95.4,83.7,86.8,80.0,80.0,USA
1003,Pittsburgh,United States,2008,6000000.79,-79.9958864,40.44062479999999,35877,303376.0,151.0,0.911,40.8,81.0,90.0,73.0,76.9,68.3,59.8,54.8,92.6,95.4,83.7,86.8,80.0,80.0,USA
1012,San Diego,United States,2008,12500000.0,-117.1610838,32.715738,35884,1406976.0,964.5,0.911,40.8,81.0,90.0,73.0,76.50288600288599,68.3,59.8,54.01551226551214,92.6,95.4,83.7,86.8,80.0,80.0,USA
1131,West Hollywood,United States,2008,583213.0,-118.3617,34.09,58357,34399.0,5.0,0.911,40.8,81.0,90.0,73.0,76.9,68.3,59.8,54.8,92.6,95.4,83.7,86.8,80.0,80.0,USA
115,Melbourne,Australia,2009,4870289.0,144.96328,-37.814107,31109,154863.4,38.0,0.928,34.55,82.6,90.0,86.0,90.93333333333334,61.4,64.3,85.03333333333332,90.5,94.7,84.7,84.8,80.0,90.0,AUS
168,São Paulo,Brazil,2009,15115000.0,-46.6333094,-23.5505199,31184,5632378.2515,3694.751717089304,0.719,53.7,56.7,50.0,35.0,49.7,65.8,50.3,22.8,54.4,62.7,77.2,71.6,50.0,50.0,BRA
233,Montreal,Canada,2009,13722942.0,-73.5539925,45.50866989999999,35894,1954472.75,500.0,0.898,33.56666666666667,80.5,90.0,87.0,77.0816091954023,76.6,53.7,81.20804597701147,96.5,81.9,80.8,88.2,70.0,80.0,CAN
247,Halifax,Canada,2009,6055574.0,-63.5714,44.6478,50543,431669.5,3694.751717089304,0.898,32.7,80.5,90.0,87.0,77.0816091954023,76.6,53.7,81.20804597701147,96.5,81.9,80.8,88.2,70.0,80.0,CAN
288,Santiago,Chile,2009,19592190.0,-70.641997,-33.4691199,31180,7399031.6,15403.0,0.822,47.0,78.3,90.0,70.0,59.925,78.2,90.1,91.45,66.3,75.0,77.3,85.8,80.0,70.0,CHL
400,Paris,France,2009,24600000.0,2.3522219,48.856614,31175,2242245.333333333,105.0,0.876,32.7,63.3,70.0,73.0,72.7,50.9,14.5,60.8,87.4,54.5,71.7,80.8,60.0,70.0,FRA
411,Berlin,Germany,2009,20168000.0,13.404954,52.5200066,31153,3644899.0,3694.751717089304,0.924,30.5,70.5,90.0,78.0,79.5,58.5,38.2,89.9,90.3,43.4,80.8,85.8,80.0,60.0,DEU
418,Hamburg,Germany,2009,16951242.0,9.993681800000001,53.5510846,35868,1775099.5,755.0,0.924,30.5,70.5,90.0,78.0,79.2,58.5,38.2,90.07999999999998,90.3,43.4,80.8,85.8,80.0,60.0,DEU
448,Hong Kong,Hong Kong,2009,42900000.0,114.1398015,22.2880809,31169,7398480.0,1104.0,0.901,38.87940929917293,90.0,90.0,83.0,84.3,93.4,93.1,100.0,92.7,86.3,86.2,95.0,90.0,90.0,HKG
501,Bologna,Italy,2009,2270524.7,11.3547975,44.48560870000001,36274,259068.7536666667,140.0,0.876,33.8,61.4,50.0,52.0,56.86666666666665,55.8,24.7,67.24666666666666,78.7,61.3,80.8,80.8,70.0,60.0,ITA
512,Tokyo,Japan,2009,62178462.0,139.6917064,35.6894875,31111,13765448.2,2188.0,0.882,33.04444444444444,72.8,70.0,75.0,73.5,67.5,61.1,29.4,85.8,82.5,93.6,82.0,60.0,50.0,JPN
641,Torres Vedras ,Portugal,2009,260331.0,-9.30148,38.763669,19233,79465.0,407.0,0.823,34.9,64.9,70.0,65.0,69.25714285714285,61.6,35.4,42.73571428571429,81.1,40.3,79.9,85.8,70.0,60.0,PRT
643,Lisbon,Portugal,2009,3189867.0,-9.1393366,38.7222524,36159,547753.0,85.0,0.823,34.9,64.9,70.0,65.0,70.1,61.6,35.4,46.0,81.1,40.3,79.9,85.8,70.0,60.0,PRT
650,Porto,Portugal,2009,1020000.0,-8.6291053,41.1579438,46514,238272.5,42.0,0.823,34.9,64.9,70.0,65.0,68.9,61.6,35.4,32.1,81.1,40.3,79.9,85.8,70.0,60.0,PRT
676,Coruche,Portugal,2009,69737.0,-8.524822,38.960306,832909,18126.0,3694.751717089304,0.823,34.9,64.9,70.0,65.0,69.25714285714285,61.6,35.4,42.73571428571429,81.1,40.3,79.9,85.8,70.0,60.0,PRT
738,Madrid,Spain,2009,13139000.0,-3.7037902,40.4167754,31171,2397950.5,604.0,0.865,34.9,70.1,70.0,67.0,53.9,58.6,55.3,26.9,76.8,48.3,78.9,85.8,80.0,80.0,ESP
753,Stockholm,Sweden,2009,2852000.0,18.0685808,59.3293235,3429,938398.0,216.0,0.905,27.3,70.5,90.0,93.0,85.2,35.0,7.3,94.75,95.9,55.5,82.1,85.8,80.0,80.0,SWE
875,Manchester,United Kingdom,2009,15902000.0,-2.2484851,53.479324,35898,2802263.75,1277.0,0.906,34.3,79.0,90.0,84.0,93.0,61.0,40.3,40.4,89.8,78.5,80.4,85.8,90.0,90.0,GBR
1013,San Diego,United States,2009,12624227.0,-117.1610838,32.715738,35884,1406976.0,964.5,0.912,40.6,80.7,90.0,72.0,76.50288600288599,67.5,59.6,54.01551226551214,91.9,95.1,84.0,86.8,80.0,80.0,USA
1,Buenos Aires,Argentina,2010,9258902.77,-58.3815931,-34.6037232,31155,3016817.0,202.0,0.829,43.6,51.2,20.0,29.0,39.6,69.5,75.6,56.4,62.1,50.1,61.2,69.5,45.0,30.0,ARG
116,Melbourne,Australia,2010,4155010.0,144.96328,-37.814107,31109,154863.4,38.0,0.93,34.7,82.6,90.0,87.0,90.93333333333334,61.4,64.9,85.03333333333332,90.3,94.9,82.7,85.1,80.0,90.0,AUS
170,Belo Horizonte,Brazil,2010,2878873.0,-43.9333,-19.9167,35848,2463719.666666667,331.0,0.727,52.52500000000001,55.6,50.0,35.0,50.88260869565219,68.4,50.3,18.70434782608696,54.5,57.5,75.8,69.2,45.0,50.0,BRA
185,Goiânia,Brazil,2010,2016320.0,-49.2647943,-16.6868912,42123,300399629.4,739.0,0.727,53.3,55.6,50.0,35.0,49.7,68.4,50.3,22.8,54.5,57.5,75.8,69.2,45.0,50.0,BRA
191,Vitória,Brazil,2010,2798291.18,-40.3776,-20.3338,50392,352190.75,98194.0,0.727,53.3,55.6,50.0,35.0,49.7,68.4,50.3,22.8,54.5,57.5,75.8,69.2,45.0,50.0,BRA
282,North Vancouver,Canada,2010,196840.0,-123.07328,49.32699,59669,52622.0,11.8,0.901,33.6,80.4,90.0,87.0,77.0816091954023,76.7,54.1,81.20804597701147,96.5,81.5,75.4,88.1,75.0,80.0,CAN
289,Santiago,Chile,2010,19592190.0,-70.641997,-33.4691199,31180,7399031.6,15403.0,0.803,46.4,77.2,85.0,69.0,59.925,77.5,89.6,91.45,64.8,75.4,73.0,88.0,80.0,70.0,CHL
305,Santiago de Cali,Colombia,2010,4174608.0,-76.53198499999999,3.451647,36037,2420340.5,566.0,0.729,54.6,65.5,50.0,38.0,30.94,74.3,74.8,83.84000000000002,83.6,72.7,74.0,72.5,55.0,60.0,COL
312,Tulua,Colombia,2010,208681.0,-76.19793,4.086180000000001,69967,209086.0,910.0,0.729,54.6,65.5,50.0,38.0,30.94,74.3,74.8,83.84000000000002,83.6,72.7,74.0,72.5,55.0,60.0,COL
332,Copenhagen,Denmark,2010,2515250.0,12.5683371,55.6760968,31009,604991.5,86.0,0.917,27.2,77.9,90.0,93.0,83.6,35.9,22.0,96.7,97.9,93.7,79.3,87.5,90.0,90.0,DNK
380,Helsinki,Finland,2010,3222900.0,24.9410248,60.17332439999999,8242,639758.4,214.0,0.916,27.7,73.8,90.0,90.0,82.2,65.4,32.9,81.6,95.0,43.8,78.9,87.5,75.0,80.0,FIN
403,Nice,France,2010,3352154.0,7.261953,43.710173,50220,550000.0,1400.0,0.879,33.7,64.2,80.0,69.0,72.7,51.9,17.9,57.0,86.3,54.7,79.7,82.5,50.0,70.0,FRA
412,Berlin,Germany,2010,21299000.0,13.404954,52.5200066,31153,3644899.0,3694.751717089304,0.927,30.2,71.1,90.0,79.0,79.5,58.3,41.4,89.9,89.6,39.9,79.9,87.5,85.0,60.0,DEU
419,Hamburg,Germany,2010,18286235.0,9.993681800000001,53.5510846,35868,1775099.5,755.0,0.927,30.2,71.1,90.0,79.0,79.2,58.3,41.4,90.07999999999998,89.6,39.9,79.9,87.5,85.0,60.0,DEU
449,Hong Kong,Hong Kong,2010,41500000.0,114.1398015,22.2880809,31169,7398480.0,1104.0,0.904,38.87940929917293,89.7,90.0,81.0,84.3,93.0,93.7,100.0,98.7,87.4,83.1,90.0,90.0,90.0,HKG
476,Tarakan,Indonesia,2010,492164.23,117.578505,3.32736,73750,249405.0,3694.751717089304,0.665,36.4,55.5,30.0,26.0,43.85714285714285,81.9,89.1,89.5142857142857,53.1,50.8,70.8,77.9,35.0,40.0,IDN
481,Rome,Italy,2010,10008879.0,12.4801802,41.8723889,31110,2148980.4035,1285.0,0.879,34.7,62.7,55.0,48.0,56.86666666666665,55.2,31.2,67.24666666666666,77.9,58.2,79.0,87.5,75.0,60.0,ITA
519,Yokohama,Japan,2010,19051000.0,139.6380256,35.4437078,31113,12136443.25,437.0,0.887,32.1,72.9,80.0,73.0,73.5,67.2,61.1,29.4,84.5,82.4,88.8,82.4,60.0,50.0,JPN
526,Nagoya,Japan,2010,13650000.0,136.906398,35.1814464,35902,2288790.5,326.0,0.887,32.1,72.9,80.0,73.0,73.20625,67.2,61.1,29.79999999999999,84.5,82.4,88.8,82.4,60.0,50.0,JPN
553,Mexico City,Mexico,2010,26232831.0,-102.552784,23.634501,31172,8916511.666666666,1485.0,0.748,47.2,68.3,50.0,36.0,39.0,83.5,85.2,69.8,83.0,61.9,76.3,82.0,65.0,60.0,MEX
564,Cuernevaca,Mexico,2010,1131908.75,-102.8263312111111,23.0103451,50366,3041410.942493827,3694.751717089304,0.748,47.2,68.3,50.0,36.0,39.0,83.5,85.2,69.8,83.0,61.9,76.3,82.0,65.0,60.0,MEX
567,Chihuahua,Mexico,2010,14330261.0,-106.076272,28.636857,50375,871498.75,8384.0,0.748,47.2,68.3,50.0,36.0,39.0,83.5,85.2,69.8,83.0,61.9,76.3,82.0,65.0,60.0,MEX
569,Xalapa,Mexico,2010,1642939.38,-98.7556,20.1318,832009,480841.0,3694.751717089304,0.748,47.2,68.3,50.0,36.0,39.0,83.5,85.2,69.8,83.0,61.9,76.3,82.0,65.0,60.0,MEX
575,Amsterdam,Netherlands,2010,5045000.0,4.895167900000001,52.3702157,31148,848091.25,219.0,0.917,27.8,75.0,90.0,89.0,71.64999999999999,52.0,38.4,85.16666666666667,82.6,59.1,81.0,87.5,90.0,80.0,NLD
579,Rotterdam,Netherlands,2010,29608297.0,4.4777325,51.9244201,31179,481798.1165,208.0,0.917,27.8,75.0,90.0,89.0,72.0,52.0,38.4,85.6,82.6,59.1,81.0,87.5,90.0,80.0,NLD
628,Parañaque,Philippines,2010,788108.0,121.019823,14.479309,54356,690266.0,46.6,0.671,44.6,56.3,30.0,23.0,37.1,78.8,91.2,97.2,48.1,51.9,72.7,77.8,40.0,50.0,PHL
629,Batangas,Philippines,2010,457288.0,121.058308,13.756465,59996,343314.0,285.0,0.671,44.6,56.3,30.0,23.0,37.1,78.8,91.2,97.2,48.1,51.9,72.7,77.8,40.0,50.0,PHL
644,Lisbon,Portugal,2010,3133805.0,-9.1393366,38.7222524,36159,547753.0,85.0,0.829,35.8,64.4,70.0,61.0,70.1,61.0,37.1,46.0,80.5,37.0,79.7,87.5,70.0,60.0,PRT
659,Faro,Portugal,2010,265.85,19.1424789,57.9441874,50673,61059.0,202570.0,0.829,35.8,64.4,70.0,61.0,69.25714285714285,61.0,37.1,42.73571428571429,80.5,37.0,79.7,87.5,70.0,60.0,PRT
664,Cascais,Portugal,2010,565382.0,-9.422294500000001,38.6970565,50680,210298.0,97.0,0.829,35.8,64.4,70.0,61.0,69.25714285714285,61.0,37.1,42.73571428571429,80.5,37.0,79.7,87.5,70.0,60.0,PRT
694,Singapore,Singapore,2010,46831860.0,103.819836,1.352083,35993,5616666.666666667,719.0,0.909,38.87940929917293,86.1,90.0,92.0,91.5,90.7,95.3,80.7,98.2,98.9,80.9,90.0,75.0,50.0,SGP
712,Durban,South Africa,2010,25962074.0,31.0218404,-29.8586804,35863,10652765.4,2292.0,0.664,63.4,62.8,50.0,49.0,63.24285714285715,69.1,76.8,72.62857142857142,73.0,59.0,70.2,76.0,45.0,60.0,ZAF
727,Seoul,South Korea,2010,49750736.0,126.9779692,37.56653499999999,31187,10127427.0,605.0,0.889,32.0,69.9,70.0,56.0,67.76822911104446,71.1,74.9,64.32249647213447,91.9,47.1,77.4,70.8,70.0,70.0,
731,Suwon,South Korea,2010,6048245.0,127.0286009,37.2635727,44185,1234939.5,121.0,0.889,32.0,69.9,70.0,56.0,67.76822911104446,71.1,74.9,64.32249647213447,91.9,47.1,77.4,70.8,70.0,70.0,
739,Madrid,Spain,2010,12039000.0,-3.7037902,40.4167754,31171,2397950.5,604.0,0.872,35.2,69.6,70.0,65.0,53.9,58.1,54.8,26.9,75.8,47.3,77.7,87.5,80.0,80.0,ESP
754,Stockholm,Sweden,2010,3189000.0,18.0685808,59.3293235,3429,938398.0,216.0,0.911,27.7,72.4,95.0,93.0,85.2,36.7,17.3,94.75,95.5,54.9,79.5,87.5,85.0,80.0,SWE
784,Zürich,Switzerland,2010,1973200.0,8.539182499999999,47.36864979999999,35449,421304.0,92.0,0.941,32.6,81.1,90.0,90.0,82.1,68.2,68.9,95.9,81.2,81.8,81.3,90.0,80.0,80.0,CHE
792,Kaohsiung,Taiwan,2010,63624500.0,120.3230776,22.6238898,31112,2776348.6,2947.0,0.869885505257732,38.87940929917293,70.4,70.0,57.0,68.7277777777778,75.9,90.5,88.56481481481481,83.0,47.7,79.3,85.8,65.0,50.0,TWN
798,Taipei,Taiwan,2010,15500000.0,121.5488669,25.0465658,31446,2679476.8,272.0,0.869885505257732,38.87940929917293,70.4,70.0,57.0,69.2,75.9,90.5,90.8,83.0,47.7,79.3,85.8,65.0,50.0,TWN
859,London,United Kingdom,2010,43400000.0,-0.078689,51.504858,3422,8797293.666666666,1572.0,0.912,34.4,76.5,85.0,77.0,93.8,61.8,41.9,53.5,94.9,72.8,73.7,87.5,90.0,80.0,GBR
876,Manchester,United Kingdom,2010,16608920.0,-2.2484851,53.479324,35898,2802263.75,1277.0,0.912,34.4,76.5,85.0,77.0,93.0,61.8,41.9,40.4,94.9,72.8,73.7,87.5,90.0,80.0,GBR
900,Atlanta,United States,2010,9650000.0,-84.3879824,33.7489954,1093,446978.5,343.0,0.916,40.0,78.0,85.0,73.0,76.50288600288599,67.5,58.0,54.01551226551214,91.3,94.8,78.1,86.9,75.0,70.0,USA
904,Austin,United States,2010,14926864.0,-97.7431,30.2672,1184,1051644.6,704.0,0.916,40.0,78.0,85.0,73.0,76.0,67.5,58.0,54.05,91.3,94.8,78.1,86.9,75.0,70.0,USA
909,Burlington,United States,2010,287535.99,-73.21207199999999,44.4758825,2430,42284.0,40.1,0.916,40.0,78.0,85.0,73.0,76.50288600288599,67.5,58.0,54.01551226551214,91.3,94.8,78.1,86.9,75.0,70.0,USA
911,Chicago,United States,2010,33545577.0,-87.62979820000001,41.8781136,3203,2714889.25,606.0,0.916,40.0,78.0,85.0,73.0,76.50288600288599,67.5,58.0,54.01551226551214,91.3,94.8,78.1,86.9,75.0,70.0,USA
913,New York,United States,2010,54348841.0,-74.00594129999999,40.7127837,3417,8512613.0,784.0,0.916,40.0,78.0,85.0,73.0,76.85,67.5,58.0,53.2,91.3,94.8,78.1,86.9,75.0,70.0,USA
928,Los Angeles,United States,2010,38734718.0,-118.2436849,34.0522342,10894,3993752.0,1215.0,0.916,40.0,78.0,85.0,73.0,76.0,67.5,58.0,54.05,91.3,94.8,78.1,86.9,75.0,70.0,USA
935,"Portland, OR",United States,2010,7664696.0,-122.6762071,45.5234515,14874,719664.5,376.0,0.916,40.0,78.0,85.0,73.0,76.0,67.5,58.0,54.05,91.3,94.8,78.1,86.9,75.0,70.0,USA
956,Philadelphia,United States,2010,15174236.0,-75.16378900000001,39.952335,31181,1558435.666666667,367.0,0.916,40.0,78.0,85.0,73.0,76.50288600288599,67.5,58.0,54.01551226551214,91.3,94.8,78.1,86.9,75.0,70.0,USA
960,San Francisco,United States,2010,5255665.0,-122.4194155,37.7749295,31182,875842.75,121.0,0.916,40.0,78.0,85.0,73.0,76.0,67.5,58.0,54.05,91.3,94.8,78.1,86.9,75.0,70.0,USA
966,Denver,United States,2010,13028000.0,-104.9847179,39.737567,32550,692162.4,401.0,0.916,40.0,78.0,85.0,73.0,76.9,67.5,58.0,54.8,91.3,94.8,78.1,86.9,75.0,70.0,USA
982,"Portland, ME",United States,2010,1142797.0,-70.2553,43.6615,35274,66801.5,55.0,0.916,40.0,78.0,85.0,73.0,76.50288600288599,67.5,58.0,54.01551226551214,91.3,94.8,78.1,86.9,75.0,70.0,USA
983,St. Louis,United States,2010,7549862.0,-90.1994042,38.6270025,35393,311066.0,170.9,0.916,40.0,78.0,85.0,73.0,76.9,67.5,58.0,54.8,91.3,94.8,78.1,86.9,75.0,70.0,USA
987,Baltimore,United States,2010,7579144.0,-76.6121893,39.2903848,35853,608360.5,210.0,0.916,40.0,78.0,85.0,73.0,75.1,67.5,58.0,53.3,91.3,94.8,78.1,86.9,75.0,70.0,USA
991,Cleveland,United States,2010,12892686.0,-81.6943605,41.49932,35859,388678.6666666667,201.0,0.916,40.0,78.0,85.0,73.0,76.0,67.5,58.0,54.05,91.3,94.8,78.1,86.9,75.0,70.0,USA
996,Dallas,United States,2010,17229388.0,-96.80045109999999,32.78013989999999,35860,1301361.5,999.0,0.916,40.0,78.0,85.0,73.0,76.50288600288599,67.5,58.0,54.01551226551214,91.3,94.8,78.1,86.9,75.0,70.0,USA
1043,Benicia,United States,2010,688706.0,-122.1585777,38.049365,49787,27801.33333333333,13.0,0.916,40.0,78.0,85.0,73.0,76.50288600288599,67.5,58.0,54.01551226551214,91.3,94.8,78.1,86.9,75.0,70.0,USA
1049,Norfolk,United States,2010,3690352.0,38.8468,-76.2851,50557,246256.0,3694.751717089304,0.916,40.0,78.0,85.0,73.0,76.50288600288599,67.5,58.0,54.01551226551214,91.3,94.8,78.1,86.9,75.0,70.0,USA
1057,Yonkers,United States,2010,1248650.0,-73.8644,40.9414,52893,199766.0,47.0,0.916,40.0,78.0,85.0,73.0,76.50288600288599,67.5,58.0,54.01551226551214,91.3,94.8,78.1,86.9,75.0,70.0,USA
1080,Hayward,United States,2010,1075460.0,-122.0808,37.6689,54078,160823.6666666667,117.0,0.916,40.0,78.0,85.0,73.0,75.1,67.5,58.0,53.3,91.3,94.8,78.1,86.9,75.0,70.0,USA
1090,Albany,United States,2010,1217091.0,-73.7562,42.6526,54102,97856.0,55.0,0.916,40.0,78.0,85.0,73.0,78.6,67.5,58.0,53.1,91.3,94.8,78.1,86.9,75.0,70.0,USA
1134,Abington ,United States,2010,615224.0,-75.119511,40.12408,58485,55310.0,40.1,0.916,40.0,78.0,85.0,73.0,76.50288600288599,67.5,58.0,54.01551226551214,91.3,94.8,78.1,86.9,75.0,70.0,USA
1161,"Davis, CA",United States,2010,348347.0,-121.740517,38.544907,59552,66855.5,25.0,0.916,40.0,78.0,85.0,73.0,76.50288600288599,67.5,58.0,54.01551226551214,91.3,94.8,78.1,86.9,75.0,70.0,USA
1193,Cupertino,United States,2010,296048.0,-122.032182,37.322998,64014,60506.33333333334,29.3,0.916,40.0,78.0,85.0,73.0,76.50288600288599,67.5,58.0,54.01551226551214,91.3,94.8,78.1,86.9,75.0,70.0,USA
1196,Ithaca,United States,2010,178413.0,-76.501881,42.443961,73365,20372.0,3694.751717089304,0.916,40.0,78.0,85.0,73.0,76.50288600288599,67.5,58.0,54.01551226551214,91.3,94.8,78.1,86.9,75.0,70.0,USA
0,Tirana,Albania,2011,610773.0,19.818698,41.32754600000001,59163,780531.0,1110.0,0.764,38.87940929917293,64.0,35.0,32.0,67.76822911104446,92.1,68.7,64.32249647213447,67.1,50.4,79.9,79.8,65.0,70.0,ALB
222,Toronto,Canada,2011,20662821.41,-79.3831843,43.653226,31117,2833632.0,634.0,0.903,33.3,80.8,90.0,87.0,77.1,78.0,52.7,81.2,96.4,81.7,78.8,88.1,75.0,80.0,CAN
270,Winnipeg,Canada,2011,5379024.0,-97.13749370000001,49.8997541,50579,723825.0,464.0,0.903,33.29402985074626,80.8,90.0,87.0,77.0816091954023,78.0,52.7,81.20804597701147,96.4,81.7,78.8,88.1,75.0,80.0,CAN
273,Peterborough,Canada,2011,283061.0,-78.31974699999999,44.309058,54088,80396.0,63.8,0.903,33.29402985074626,80.8,90.0,87.0,77.1,78.0,52.7,81.2,96.4,81.7,78.8,88.1,75.0,80.0,CAN
298,Bogotá,Colombia,2011,15921690.22,-74.07583299999999,4.598056,31154,7818299.75,1776.0,0.734,53.5,68.0,50.0,37.0,25.2,74.5,78.9,89.8,86.1,79.3,75.8,73.2,65.0,60.0,COL
306,Cali,Colombia,2011,4664730.56,-76.53198499999999,3.451647,36037,2420340.5,566.0,0.734,53.5,68.0,50.0,37.0,30.94,74.5,78.9,83.84000000000002,86.1,79.3,75.8,73.2,65.0,60.0,COL
333,Copenhagen,Denmark,2011,2124000.0,12.5683371,55.6760968,31009,604991.5,86.0,0.93,27.3,78.6,90.0,93.0,83.6,43.2,19.5,96.7,99.7,92.1,81.4,87.6,90.0,90.0,DNK
371,Quito,Ecuador,2011,5164945.0,-78.5167,-0.2333,42178,2239191.0,4232.0,0.732,45.9,47.1,20.0,22.0,20.2,78.9,50.1,32.1,53.5,40.1,64.9,76.0,25.0,40.0,ECU
386,Turku,Finland,2011,1033000.0,22.2666303,60.4518126,50154,189400.0,246.0,0.92,27.6,74.0,90.0,89.0,82.7,65.3,26.5,81.1,95.0,41.4,80.7,87.6,85.0,80.0,FIN
415,Stadt Heidelberg,Germany,2011,879900.0,8.672433999999999,49.398752,31165,147427.4,109.0,0.933,30.5,71.8,90.0,80.0,79.5,58.5,42.7,89.9,89.6,40.6,83.9,87.6,85.0,60.0,DEU
420,Hamburg,Germany,2011,17572000.0,9.993681800000001,53.5510846,35868,1775099.5,755.0,0.933,30.5,71.8,90.0,80.0,79.2,58.5,42.7,90.07999999999998,89.6,40.6,83.9,87.6,85.0,60.0,DEU
447,Tegucigalpa,Honduras,2011,5034285.67,-87.2044,14.1051,50354,1225043.0,3694.751717089304,0.613,56.2,58.6,30.0,25.0,67.76822911104446,83.5,85.7,64.32249647213447,62.1,29.7,73.2,77.0,60.0,60.0,HND
450,Hong Kong,Hong Kong,2011,42700000.0,114.1398015,22.2880809,31169,7398480.0,1104.0,0.907,38.87940929917293,89.7,90.0,82.0,84.3,93.3,89.6,100.0,98.7,86.2,87.1,90.0,90.0,90.0,HKG
479,Dublin,Ireland,2011,2942349.0,-6.270843,53.34447900000001,31313,527612.0,115.0,0.902,32.9,78.7,90.0,80.0,67.76822911104446,72.1,47.1,64.32249647213447,92.0,77.5,80.7,87.6,90.0,70.0,IRL
498,Genova,Italy,2011,1810370.0,9.318414500000001,44.3479608,36262,582563.6,1118.0,0.883,35.1,60.3,50.0,43.0,56.86666666666665,55.4,28.6,67.24666666666666,77.3,44.4,82.1,87.6,75.0,60.0,ITA
513,Tokyo,Japan,2011,61640000.0,139.6917064,35.6894875,31111,13765448.2,2188.0,0.892,33.04444444444444,72.8,80.0,77.0,73.5,67.0,58.7,29.4,83.8,81.1,87.9,82.6,60.0,50.0,JPN
541,Vilnius,Lithuania,2011,1499304.0,25.2796514,54.6871555,36154,542626.0,401.0,0.838,32.5,71.3,60.0,49.0,67.76822911104446,86.1,58.0,64.32249647213447,81.7,55.6,74.5,87.6,80.0,80.0,LTU
576,Amsterdam,Netherlands,2011,5094000.0,4.895167900000001,52.3702157,31148,848091.25,219.0,0.928,27.8,74.7,90.0,89.0,71.64999999999999,50.6,36.8,85.16666666666667,81.9,58.3,82.7,87.6,90.0,80.0,NLD
580,Rotterdam,Netherlands,2011,29460000.0,4.4777325,51.9244201,31179,481798.1165,208.0,0.928,27.8,74.7,90.0,89.0,72.0,50.6,36.8,85.6,81.9,58.3,82.7,87.6,90.0,80.0,NLD
606,Oslo,Norway,2011,2344284.0,10.7522454,59.9138688,14088,665929.5,454.0,0.942,25.3,70.3,90.0,86.0,84.65,51.6,51.5,98.1,88.3,45.8,75.1,89.4,65.0,60.0,NOR
627,Makati,Philippines,2011,1660370.0,121.081632,14.559004,54354,529039.0,27.4,0.676,44.6,56.2,30.0,24.0,37.1,78.8,91.0,97.2,43.4,50.7,76.3,77.8,40.0,50.0,PHL
688,Moscow,Russia,2011,44642239.4,37.6173,55.755826,31174,12541168.33333333,2511.0,0.79,37.5,50.5,25.0,22.0,67.76822911104446,82.7,65.1,64.32249647213447,50.7,62.9,63.1,68.2,25.0,40.0,RUS
695,Singapore,Singapore,2011,4510000.0,103.819836,1.352083,35993,5616666.666666667,719.0,0.913,38.87940929917293,87.2,90.0,92.0,91.5,91.1,91.3,80.7,98.2,98.0,86.2,90.0,75.0,60.0,SGP
713,Durban,South Africa,2011,21496010.0,31.0218404,-29.8586804,35863,10652765.4,2292.0,0.665,63.2,62.7,50.0,47.0,63.24285714285715,69.6,77.5,72.62857142857142,72.3,56.7,71.9,77.2,45.0,60.0,ZAF
728,Seoul,South Korea,2011,49008230.0,126.9779692,37.56653499999999,31187,10127427.0,605.0,0.895,32.0,69.8,70.0,55.0,67.76822911104446,72.2,73.0,64.32249647213447,91.6,46.5,78.7,70.8,70.0,70.0,
740,Madrid,Spain,2011,11527000.0,-3.7037902,40.4167754,31171,2397950.5,604.0,0.878,35.7,70.2,70.0,61.0,53.9,61.0,49.3,26.9,77.2,53.0,82.4,87.6,80.0,80.0,ESP
752,Abasan Al-Kabira,State of Palestine,2011,32221.0,34.344025,31.323126,63616,31000.0,19.0,0.869885505257732,38.87940929917293,69.41948124980662,69.53020439301957,63.24978963501676,67.76822911104446,67.45616782514192,52.32086521275377,64.32249647213447,79.50850754145128,69.71202847628726,76.70915629813787,82.72269696477838,69.47591036643804,65.89319150658076,PSE
755,Stockholm,Sweden,2011,2742000.0,18.0685808,59.3293235,3429,938398.0,216.0,0.912,27.6,71.9,90.0,92.0,85.2,37.6,17.3,94.75,95.0,54.0,80.1,87.6,85.0,80.0,SWE
793,Kaohsiung,Taiwan,2011,63640300.0,120.3230776,22.6238898,31112,2776348.6,2947.0,0.869885505257732,38.87940929917293,70.8,70.0,56.0,68.7277777777778,78.3,89.7,88.56481481481481,84.7,46.1,82.0,86.2,65.0,50.0,TWN
799,Taipei,Taiwan,2011,15040800.0,121.5488669,25.0465658,31446,2679476.8,272.0,0.869885505257732,38.87940929917293,70.8,70.0,56.0,69.2,78.3,89.7,90.8,84.7,46.1,82.0,86.2,65.0,50.0,TWN
836,Kadiovacik,Turkey,2011,654.5,26.553613,38.3434574,35755,226.8,5947.0,0.753,40.0,64.2,50.0,44.0,52.15,78.2,83.6,92.9,68.7,39.6,72.7,85.4,70.0,50.0,TUR
846,Bornova,Turkey,2011,758627.0,33.29475410000001,35.2141598,44132,416007.0,3694.751717089304,0.753,40.0,64.2,50.0,44.0,52.17692307692307,78.2,83.6,93.11538461538461,68.7,39.6,72.7,85.4,70.0,50.0,TUR
860,London,United Kingdom,2011,39920355.0,-0.078689,51.504858,3422,8797293.666666666,1572.0,0.906,33.2,74.5,85.0,77.0,93.8,52.0,32.9,53.5,94.6,71.2,74.9,87.6,90.0,80.0,GBR
914,New York City,United States,2011,53358868.0,-74.00594129999999,40.7127837,3417,8512613.0,784.0,0.919,40.9,77.8,85.0,75.0,76.85,68.3,54.6,53.2,91.0,95.7,77.4,86.4,75.0,70.0,USA
921,Las Vegas,United States,2011,27803600.0,-115.1398296,36.1699412,10495,649770.75,136.0,0.919,40.9,77.8,85.0,75.0,76.86666666666666,68.3,54.6,53.73333333333333,91.0,95.7,77.4,86.4,75.0,70.0,USA
936,Portland,United States,2011,7773812.0,-122.6762071,45.5234515,14874,719664.5,376.0,0.919,40.9,77.8,85.0,75.0,76.0,68.3,54.6,54.05,91.0,95.7,77.4,86.4,75.0,70.0,USA
961,San Francisco,United States,2011,5058389.0,-122.4194155,37.7749295,31182,875842.75,121.0,0.919,40.9,77.8,85.0,75.0,76.0,68.3,54.6,54.05,91.0,95.7,77.4,86.4,75.0,70.0,USA
967,Denver,United States,2011,9161000.0,-104.9847179,39.737567,32550,692162.4,401.0,0.919,40.9,77.8,85.0,75.0,76.9,68.3,54.6,54.8,91.0,95.7,77.4,86.4,75.0,70.0,USA
974,Boston,United States,2011,6766714.0,-71.05977320000001,42.35843079999999,35268,673450.0,124.0,0.919,40.9,77.8,85.0,75.0,76.0,68.3,54.6,54.05,91.0,95.7,77.4,86.4,75.0,70.0,USA
1038,Nashville and Davidson ,United States,2011,12275845.0,-86.7816,36.1627,49335,679678.6666666666,1367.0,0.919,40.9,77.8,85.0,75.0,75.1,68.3,54.6,53.3,91.0,95.7,77.4,86.4,75.0,70.0,USA
1046,Lexington,United States,2011,6574968.0,-84.50371640000002,38.04058370000001,50548,3041410.942493827,3694.751717089304,0.919,40.9,77.8,85.0,75.0,76.50288600288599,68.3,54.6,54.01551226551214,91.0,95.7,77.4,86.4,75.0,70.0,USA
1058,Aspen and Pitkin County,United States,2011,477621.0,-106.837,39.195,52897,8715.0,20.0,0.919,40.9,77.8,85.0,75.0,75.1,68.3,54.6,53.3,91.0,95.7,77.4,86.4,75.0,70.0,USA
1103,Santa Monica,United States,2011,705443.0,-118.4814,34.0219,54110,91963.0,20.0,0.919,40.9,77.8,85.0,75.0,76.9,68.3,54.6,54.8,91.0,95.7,77.4,86.4,75.0,70.0,USA
1158,"Charlottesville, VA",United States,2011,720870.0,-78.4767,38.0293,59545,47626.25,26.9,0.919,40.9,77.8,85.0,75.0,76.9,68.3,54.6,54.8,91.0,95.7,77.4,86.4,75.0,70.0,USA
1175,"Piedmont, CA",United States,2011,43442.0,-122.2316,37.8244,60656,11230.0,4.3,0.919,40.9,77.8,85.0,75.0,75.1,68.3,54.6,53.3,91.0,95.7,77.4,86.4,75.0,70.0,USA
1229,Caracas,Venezuela,2011,17213803.0,-66.8037185,10.4696404,31159,3518590.0,776.0,0.769,38.87940929917293,37.6,5.0,19.0,67.76822911104446,75.0,65.3,64.32249647213447,47.8,31.1,47.0,61.2,5.0,20.0,VEN
2,Buenos Aires,Argentina,2012,9886932.0,-58.3815931,-34.6037232,31155,3016817.0,202.0,0.834,41.3,48.0,20.0,29.0,39.6,65.5,56.9,56.4,61.0,48.9,60.7,67.6,40.0,30.0,ARG
117,Melbourne,Australia,2012,6442240.0,144.96328,-37.814107,31109,154863.4,38.0,0.937,34.55,83.1,90.0,87.0,90.93333333333334,63.4,67.1,85.03333333333332,91.9,90.6,84.5,86.2,80.0,90.0,AUS
160,La Paz,Bolivia,2012,1440.5,-68.15,-16.5,50364,798.0,2010.0,0.675,46.6,50.2,10.0,28.0,67.76822911104446,87.0,62.2,64.32249647213447,56.5,40.8,72.8,74.3,20.0,50.0,BOL
165,Rio de Janeiro,Brazil,2012,20758240.0,-43.1970773,-22.9082998,31176,6498578.0,1224.6,0.735,53.5,57.9,50.0,37.0,49.7,69.1,54.8,22.8,53.7,59.1,75.8,69.7,50.0,60.0,BRA
176,Recife,Brazil,2012,1883.0,-62.7284414,8.3127386,35872,1619576.0,218.0,0.735,53.5,57.9,50.0,37.0,49.7,69.1,54.8,22.8,53.7,59.1,75.8,69.7,50.0,60.0,BRA
182,Brasília,Brazil,2012,773983.0,-47.882166,-15.794229,35995,1409671.0,5780.0,0.735,53.5,57.9,50.0,37.0,50.88260869565219,69.1,54.8,18.70434782608696,53.7,59.1,75.8,69.7,50.0,60.0,BRA
187,Sorocaba,Brazil,2012,1113971.3,-47.4220615,-23.4774899,50383,661991.0,450.0,0.735,53.5,57.9,50.0,37.0,49.7,69.1,54.8,22.8,53.7,59.1,75.8,69.7,50.0,60.0,BRA
196,Betim,Brazil,2012,5636953.0,-44.20119,-19.967308,54623,378089.0,346.0,0.735,53.5,57.9,50.0,37.0,50.88260869565219,69.1,54.8,18.70434782608696,53.7,59.1,75.8,69.7,50.0,60.0,BRA
214,Vancouver,Canada,2012,2657105.0,-123.1139268,49.261226,20113,631418.0,115.0,0.906,33.5,79.9,90.0,89.0,75.76666666666667,79.2,41.7,81.53333333333333,96.6,81.8,77.3,87.9,75.0,80.0,CAN
223,Toronto,Canada,2012,20313061.0,-79.3831843,43.653226,31117,2833632.0,634.0,0.906,33.5,79.9,90.0,89.0,77.1,79.2,41.7,81.2,96.6,81.8,77.3,87.9,75.0,80.0,CAN
237,Ottawa,Canada,2012,5420000.0,-75.697193,45.42153,43911,726456.04325,2796.0,0.906,33.5,79.9,90.0,89.0,77.1,79.2,41.7,81.2,96.6,81.8,77.3,87.9,75.0,80.0,CAN
240,Edmonton,Canada,2012,16510297.0,-113.4909267,53.544389,43912,934644.6,684.0,0.906,33.5,79.9,90.0,89.0,75.76666666666667,79.2,41.7,81.53333333333333,96.6,81.8,77.3,87.9,75.0,80.0,CAN
249,Hamilton,Canada,2012,16469283.0,-79.866091,43.250021,50555,550405.25,1117.0,0.906,33.5,79.9,90.0,89.0,78.94999999999999,79.2,41.7,80.75,96.6,81.8,77.3,87.9,75.0,80.0,CAN
253,"London, ON",Canada,2012,2920000.0,-81.2497,42.9837,50558,385564.4,421.0,0.906,33.5,79.9,90.0,89.0,78.94999999999999,79.2,41.7,80.75,96.6,81.8,77.3,87.9,75.0,80.0,CAN
299,Bogotá,Colombia,2012,15757161.9,-74.07583299999999,4.598056,31154,7818299.75,1776.0,0.739,52.6,68.0,50.0,35.0,25.2,76.0,74.1,89.8,89.4,79.7,78.7,72.2,65.0,60.0,COL
307,Cali,Colombia,2012,4566962.0,-76.53198499999999,3.451647,36037,2420340.5,566.0,0.739,52.6,68.0,50.0,35.0,30.94,76.0,74.1,83.84000000000002,89.4,79.7,78.7,72.2,65.0,60.0,COL
310,Montería,Colombia,2012,903738.0,-75.8814,8.74798,54608,399523.5,3694.751717089304,0.739,52.6,68.0,50.0,35.0,30.94,76.0,74.1,83.84000000000002,89.4,79.7,78.7,72.2,65.0,60.0,COL
334,Copenhagen,Denmark,2012,1958886.0,12.5683371,55.6760968,31009,604991.5,86.0,0.931,27.8,76.2,90.0,93.0,83.6,39.8,0.0,96.7,99.1,92.1,80.7,87.1,90.0,90.0,DNK
378,Addis Ababa,Ethiopia,2012,3708292.0,38.754366,9.028874,31146,3516188.6,540.0,0.438,38.87940929917293,52.0,30.0,27.0,67.76822911104446,74.8,91.1,64.32249647213447,64.4,55.5,67.1,65.6,25.0,20.0,ETH
387,Turku,Finland,2012,1051000.0,22.2666303,60.4518126,50154,189400.0,246.0,0.921,27.1,72.3,90.0,92.0,82.7,65.4,5.2,81.1,94.9,42.4,81.3,87.1,85.0,80.0,FIN
421,Hamburg,Germany,2012,18422000.0,9.993681800000001,53.5510846,35868,1775099.5,755.0,0.934,30.9,71.0,90.0,79.0,79.2,61.3,32.2,90.07999999999998,90.5,41.4,83.5,87.1,85.0,60.0,DEU
424,Mannheim,Germany,2012,3806000.0,8.466039,49.487459,43926,312722.0,145.0,0.934,30.9,71.0,90.0,79.0,78.0,61.3,32.2,90.8,90.5,41.4,83.5,87.1,85.0,60.0,DEU
426,Landeshauptstadt Magdeburg,Germany,2012,1400000.0,11.586164,52.08889,54443,238000.0,201.8,0.934,30.9,71.0,90.0,79.0,79.2,61.3,32.2,90.07999999999998,90.5,41.4,83.5,87.1,85.0,60.0,DEU
451,Hong Kong,Hong Kong,2012,42700000.0,114.1398015,22.2880809,31169,7398480.0,1104.0,0.914,38.87940929917293,89.9,90.0,84.0,84.3,93.1,91.0,100.0,98.9,86.5,85.8,90.0,90.0,90.0,HKG
480,Tel Aviv-Yafo ,Israel,2012,4654482.0,34.78228499999999,32.081604,35885,439897.5,52.0,0.903,41.3,67.8,70.0,61.0,67.76822911104446,64.1,41.0,64.32249647213447,64.4,65.1,79.0,83.6,80.0,70.0,ISR
520,Yokohama,Japan,2012,21039000.0,139.6380256,35.4437078,31113,12136443.25,437.0,0.897,33.26666666666667,71.6,80.0,78.0,73.5,67.1,47.0,29.4,81.8,81.4,88.9,81.8,60.0,50.0,JPN
530,Hiroshima,Japan,2012,8916709.0,132.455293,34.385203,49386,1191030.0,907.0,0.897,33.04444444444444,71.6,80.0,78.0,73.20625,67.1,47.0,29.79999999999999,81.8,81.4,88.9,81.8,60.0,50.0,JPN
534,Niseko,Japan,2012,59080.0,137.7678596608696,35.31510272173914,55171,3041410.942493827,3694.751717089304,0.897,33.04444444444444,71.6,80.0,78.0,73.20625,67.1,47.0,29.79999999999999,81.8,81.4,88.9,81.8,60.0,50.0,JPN
554,Mexico City,Mexico,2012,24551216.0,-102.552784,23.634501,31172,8916511.666666666,1485.0,0.759,48.7,65.3,50.0,31.0,39.0,80.7,78.3,69.8,82.0,61.3,76.5,72.9,60.0,60.0,MEX
559,Toluca,Mexico,2012,411014875.56,-99.655665,19.28261,50358,900855.0,3694.751717089304,0.759,48.7,65.3,50.0,31.0,39.0,80.7,78.3,69.8,82.0,61.3,76.5,72.9,60.0,60.0,MEX
596,Wellington,New Zealand,2012,1301739.0,174.776236,-41.28646029999999,43937,209287.25,290.1,0.911,38.87940929917293,82.1,95.0,93.0,83.5,71.6,45.0,98.6,99.9,89.9,85.2,86.8,75.0,80.0,NZL
620,Lima,Peru,2012,15432105.0,-77.042793,-12.046374,31170,9120333.5,2672.0,0.742,44.4,68.7,40.0,35.0,30.13333333333334,79.7,90.9,95.10000000000001,72.0,68.5,85.5,85.0,70.0,60.0,PER
635,Warsaw,Poland,2012,12706696.0,21.0122287,52.2296756,31185,1695805.75,517.0,0.842,33.0,64.2,60.0,53.0,58.0,74.4,40.3,76.1,61.4,61.3,79.1,87.1,65.0,60.0,POL
645,Lisbon,Portugal,2012,2969996.0,-9.1393366,38.7222524,36159,547753.0,85.0,0.836,36.0,63.0,70.0,60.0,70.1,59.0,25.5,46.0,83.0,32.5,82.6,87.1,70.0,60.0,PRT
689,Moscow,Russia,2012,43230745.4,37.6173,55.755826,31174,12541168.33333333,2511.0,0.798,37.5,50.5,25.0,21.0,67.76822911104446,82.5,48.6,64.32249647213447,65.1,63.5,66.3,68.2,25.0,40.0,RUS
696,Singapore,Singapore,2012,41500000.0,103.819836,1.352083,35993,5616666.666666667,719.0,0.918,38.87940929917293,87.5,90.0,93.0,91.5,91.3,91.3,80.7,97.2,92.1,84.8,90.0,75.0,70.0,SGP
707,Cape Town,South Africa,2012,22683041.0,18.4240553,-33.9248685,35858,4145917.2,2461.0,0.675,63.10000000000001,62.7,50.0,45.0,62.8,70.7,71.9,72.3,75.8,57.3,75.0,76.3,45.0,60.0,ZAF
714,Durban,South Africa,2012,23154180.0,31.0218404,-29.8586804,35863,10652765.4,2292.0,0.675,63.2,62.7,50.0,45.0,63.24285714285715,70.7,71.9,72.62857142857142,75.8,57.3,75.0,76.3,45.0,60.0,ZAF
719,Pretoria,South Africa,2012,11984729.0,28.188056,-25.746111,49360,3268732.666666667,6298.0,0.675,63.10000000000001,62.7,50.0,45.0,63.24285714285715,70.7,71.9,72.62857142857142,75.8,57.3,75.0,76.3,45.0,60.0,ZAF
732,Suwon,South Korea,2012,5881312.0,127.0286009,37.2635727,44185,1234939.5,121.0,0.898,31.6,69.9,70.0,54.0,67.76822911104446,72.8,67.2,64.32249647213447,93.6,49.7,78.9,72.6,70.0,70.0,
741,Madrid,Spain,2012,11980000.0,-3.7037902,40.4167754,31171,2397950.5,604.0,0.881,35.4,69.1,70.0,61.0,53.9,61.3,37.1,26.9,81.3,51.8,81.5,87.1,80.0,80.0,ESP
749,Zaragoza,Spain,2012,3336447.0,-0.8890853000000001,41.6488226,46473,674097.4,969.0,0.881,35.4,69.1,70.0,61.0,55.63571428571428,61.3,37.1,28.87142857142857,81.3,51.8,81.5,87.1,80.0,80.0,ESP
756,Stockholm,Sweden,2012,2511000.0,18.0685808,59.3293235,3429,938398.0,216.0,0.914,27.6,71.7,90.0,92.0,85.2,39.1,8.8,94.75,94.6,54.6,80.9,87.1,90.0,80.0,SWE
781,Basel-Stadt,Switzerland,2012,885878.0,7.5928,47.5619,31151,198651.75,37.0,0.944,31.6,81.1,90.0,87.0,82.10000000000001,67.9,65.8,95.89999999999999,77.9,87.9,84.4,90.0,80.0,80.0,CHE
785,Zurich,Switzerland,2012,2053157.0,8.539182499999999,47.36864979999999,35449,421304.0,92.0,0.944,31.6,81.1,90.0,87.0,82.1,67.9,65.8,95.9,77.9,87.9,84.4,90.0,80.0,80.0,CHE
794,Kaohsiung,Taiwan,2012,63251100.0,120.3230776,22.6238898,31112,2776348.6,2947.0,0.869885505257732,38.87940929917293,71.9,70.0,58.0,68.7277777777778,80.4,92.3,88.56481481481481,88.5,46.6,83.1,85.0,65.0,50.0,TWN
800,Taipei,Taiwan,2012,14416100.0,121.5488669,25.0465658,31446,2679476.8,272.0,0.869885505257732,38.87940929917293,71.9,70.0,58.0,69.2,80.4,92.3,90.8,88.5,46.6,83.1,85.0,65.0,50.0,TWN
837,Kadiovacik,Turkey,2012,646.7,26.553613,38.3434574,35755,226.8,5947.0,0.765,40.2,62.5,50.0,44.0,52.15,77.7,58.5,92.9,67.1,40.0,71.9,85.4,70.0,60.0,TUR
861,London,United Kingdom,2012,40750490.0,-0.078689,51.504858,3422,8797293.666666666,1572.0,0.904,32.3,74.1,90.0,76.0,93.8,56.4,21.5,53.5,94.7,71.5,73.9,87.1,90.0,80.0,GBR
877,Manchester,United Kingdom,2012,16145000.0,-2.2484851,53.479324,35898,2802263.75,1277.0,0.904,32.3,74.1,90.0,76.0,93.0,56.4,21.5,40.4,94.7,71.5,73.9,87.1,90.0,80.0,GBR
884,Leicester,United Kingdom,2012,1799400.0,-1.1333,52.6333,54529,345617.3333333333,73.0,0.904,32.3,74.1,90.0,76.0,93.0,56.4,21.5,40.4,94.7,71.5,73.9,87.1,90.0,80.0,GBR
922,Las Vegas,United States,2012,30089102.0,-115.1398296,36.1699412,10495,649770.75,136.0,0.92,40.9,76.3,85.0,71.0,76.86666666666666,69.8,46.7,53.73333333333333,91.1,95.8,77.2,86.4,70.0,70.0,USA
937,"Portland, OR",United States,2012,7511675.0,-122.6762071,45.5234515,14874,719664.5,376.0,0.92,40.9,76.3,85.0,71.0,76.0,69.8,46.7,54.05,91.1,95.8,77.2,86.4,70.0,70.0,USA
946,Washington DC,United States,2012,8361278.0,-77.03687070000001,38.9071923,31090,690274.4,158.0,0.92,40.9,76.3,85.0,71.0,76.0,69.8,46.7,54.05,91.1,95.8,77.2,86.4,70.0,70.0,USA
957,Philadelphia,United States,2012,19212870.06,-75.16378900000001,39.952335,31181,1558435.666666667,367.0,0.92,40.9,76.3,85.0,71.0,76.50288600288599,69.8,46.7,54.01551226551214,91.1,95.8,77.2,86.4,70.0,70.0,USA
962,San Francisco,United States,2012,4884340.0,-122.4194155,37.7749295,31182,875842.75,121.0,0.92,40.9,76.3,85.0,71.0,76.0,69.8,46.7,54.05,91.1,95.8,77.2,86.4,70.0,70.0,USA
968,Denver,United States,2012,8934000.0,-104.9847179,39.737567,32550,692162.4,401.0,0.92,40.9,76.3,85.0,71.0,76.9,69.8,46.7,54.8,91.1,95.8,77.2,86.4,70.0,70.0,USA
998,Detroit,United States,2012,10329322.0,-83.0457538,42.33142700000001,35862,680902.5,359.0,0.92,40.9,76.3,85.0,71.0,76.50288600288599,69.8,46.7,54.01551226551214,91.1,95.8,77.2,86.4,70.0,70.0,USA
1000,Phoenix,United States,2012,15895005.0,-112.074,33.4484,35874,1604115.666666667,1355.0,0.92,40.9,76.3,85.0,71.0,76.9,69.8,46.7,54.8,91.1,95.8,77.2,86.4,70.0,70.0,USA
1006,Minneapolis,United States,2012,4735289.0,-93.26666999999999,44.983334,35879,417166.4,139.8,0.92,40.9,76.3,85.0,71.0,76.9,69.8,46.7,54.8,91.1,95.8,77.2,86.4,70.0,70.0,USA
1041,Tucson,United States,2012,6659101.0,-110.9265,32.2217,49338,529845.0,587.2,0.92,40.9,76.3,85.0,71.0,76.50288600288599,69.8,46.7,54.01551226551214,91.1,95.8,77.2,86.4,70.0,70.0,USA
1069,Knoxville,United States,2012,3999874.0,-83.9207,35.9606,54048,185853.5,255.2,0.92,40.9,76.3,85.0,71.0,76.50288600288599,69.8,46.7,54.01551226551214,91.1,95.8,77.2,86.4,70.0,70.0,USA
1093,Boulder,United States,2012,1929492.0,-105.2519,40.0274,54104,107258.2,67.0,0.92,40.9,76.3,85.0,71.0,76.0,69.8,46.7,54.05,91.1,95.8,77.2,86.4,70.0,70.0,USA
1122,"Arlington, VA",United States,2012,2550886.0,-76.00259399999999,37.226486,55799,221575.0,67.0,0.92,40.9,76.3,85.0,71.0,76.50288600288599,69.8,46.7,54.01551226551214,91.1,95.8,77.2,86.4,70.0,70.0,USA
1125,Cambridge,United States,2012,1462236.0,-93.327333,45.60100000000001,55800,109694.0,16.2,0.92,40.9,76.3,85.0,71.0,76.50288600288599,69.8,46.7,54.01551226551214,91.1,95.8,77.2,86.4,70.0,70.0,USA
1146,Blacksburg,United States,2012,383747.15,-80.4139,37.2296,58621,44360.25,51.5,0.92,40.9,76.3,85.0,71.0,76.0,69.8,46.7,54.05,91.1,95.8,77.2,86.4,70.0,70.0,USA
1168,"Hermosa Beach, CA",United States,2012,126611.0,-118.3995,33.8622,59612,19750.0,2.3,0.92,40.9,76.3,85.0,71.0,76.50288600288599,69.8,46.7,54.01551226551214,91.1,95.8,77.2,86.4,70.0,70.0,USA
1203,Encinitas,United States,2012,435710.0,-117.293,33.0454,74401,62784.33333333334,3694.751717089304,0.92,40.9,76.3,85.0,71.0,76.50288600288599,69.8,46.7,54.01551226551214,91.1,95.8,77.2,86.4,70.0,70.0,USA
3,Buenos Aires,Argentina,2013,11438694.0,-58.3815931,-34.6037232,31155,3016817.0,202.0,0.835,40.9,46.7,15.0,30.0,39.6,64.3,52.1,56.4,60.1,47.4,60.4,67.6,40.0,30.0,ARG
125,Sydney,Australia,2013,5052256.0,151.2069902,-33.8674869,31114,227878.8,26.0,0.931,34.48571428571428,82.6,90.0,88.0,90.93333333333334,66.4,62.8,85.03333333333332,95.5,83.5,83.8,86.2,80.0,90.0,AUS
131,Adelaide,Australia,2013,486541.0,138.600746,-34.928499,32480,24550.8,16.0,0.931,34.48571428571428,82.6,90.0,88.0,93.15,66.4,62.8,84.44999999999999,95.5,83.5,83.8,86.2,80.0,90.0,AUS
162,Curitiba,Brazil,2013,3036279.0,-62.7288829,8.309021000000001,31156,1822952.0,434.0,0.753,52.8,57.7,50.0,38.0,50.88260869565219,70.3,54.8,18.70434782608696,53.0,57.2,74.4,69.7,50.0,60.0,BRA
171,Belo Horizonte,Brazil,2013,3241713.0,-43.9333,-19.9167,35848,2463719.666666667,331.0,0.753,52.8,57.7,50.0,38.0,50.88260869565219,70.3,54.8,18.70434782608696,53.0,57.2,74.4,69.7,50.0,60.0,BRA
180,Porto Alegre,Brazil,2013,2829128.0,-45.3831,-3.672722,35880,1444226.0,469684.0,0.753,52.8,57.7,50.0,38.0,50.88260869565219,70.3,54.8,18.70434782608696,53.0,57.2,74.4,69.7,50.0,60.0,BRA
183,Salvador,Brazil,2013,3698964.0,-38.502304,-12.97304,42120,2877534.333333333,692819.0,0.753,52.8,57.7,50.0,38.0,55.5,70.3,54.8,7.7,53.0,57.2,74.4,69.7,50.0,60.0,BRA
190,Florianópolis,Brazil,2013,2099020.0,-48.54817429999999,-27.59498839999999,50384,522500.0,438.0,0.753,52.8,57.7,50.0,38.0,50.88260869565219,70.3,54.8,18.70434782608696,53.0,57.2,74.4,69.7,50.0,60.0,BRA
197,Betim,Brazil,2013,1763018.0,-44.20119,-19.967308,54623,378089.0,346.0,0.753,52.8,57.7,50.0,38.0,50.88260869565219,70.3,54.8,18.70434782608696,53.0,57.2,74.4,69.7,50.0,60.0,BRA
201,Palmas,Brazil,2013,625391.59,-48.324286,-10.249091,54650,282290.5,3694.751717089304,0.753,52.8,57.7,50.0,38.0,50.88260869565219,70.3,54.8,18.70434782608696,53.0,57.2,74.4,69.7,50.0,60.0,BRA
215,Vancouver,Canada,2013,2625609.0,-123.1139268,49.261226,20113,631418.0,115.0,0.913,33.8,79.4,90.0,87.0,75.76666666666667,79.8,44.8,81.53333333333333,91.7,82.3,75.2,88.2,75.0,80.0,CAN
224,Toronto,Canada,2013,18320966.0,-79.3831843,43.653226,31117,2833632.0,634.0,0.913,33.8,79.4,90.0,87.0,77.1,79.8,44.8,81.2,91.7,82.3,75.2,88.2,75.0,80.0,CAN
234,Montreal,Canada,2013,10197555.0,-73.5539925,45.50866989999999,35894,1954472.75,500.0,0.913,33.8,79.4,90.0,87.0,77.0816091954023,79.8,44.8,81.20804597701147,91.7,82.3,75.2,88.2,75.0,80.0,CAN
241,Edmonton,Canada,2013,16051047.0,-113.4909267,53.544389,43912,934644.6,684.0,0.913,33.8,79.4,90.0,87.0,75.76666666666667,79.8,44.8,81.53333333333333,91.7,82.3,75.2,88.2,75.0,80.0,CAN
254,"London, ON",Canada,2013,3070000.0,-81.2497,42.9837,50558,385564.4,421.0,0.913,33.8,79.4,90.0,87.0,78.94999999999999,79.8,44.8,80.75,91.7,82.3,75.2,88.2,75.0,80.0,CAN
290,Región Metropolitana de Santiago,Chile,2013,23120027.8,-70.641997,-33.4691199,31180,7399031.6,15403.0,0.826,45.8,79.0,90.0,72.0,59.925,77.6,83.7,91.45,70.5,74.2,84.6,82.0,85.0,70.0,CHL
292,Valdivia,Chile,2013,877816.0,-73.242533,-39.817379,54613,166080.0,3694.751717089304,0.826,45.8,79.0,90.0,72.0,59.925,77.6,83.7,91.45,70.5,74.2,84.6,82.0,85.0,70.0,CHL
300,Bogotá,Colombia,2013,16077576.18,-74.07583299999999,4.598056,31154,7818299.75,1776.0,0.742,52.6,69.6,50.0,34.0,25.2,76.1,75.2,89.8,90.2,79.3,78.7,72.2,70.0,70.0,COL
388,Turku,Finland,2013,1107500.0,22.2666303,60.4518126,50154,189400.0,246.0,0.928,27.2,74.0,90.0,94.0,82.7,66.9,12.2,81.1,94.8,45.3,79.5,86.8,90.0,80.0,FIN
392,Lahti,Finland,2013,685460.0,25.65,60.9833,54402,119884.4,517.0,0.928,27.2,74.0,90.0,94.0,82.7,66.9,12.2,77.3,94.8,45.3,79.5,86.8,90.0,80.0,FIN
404,Nice,France,2013,2139691.0,7.261953,43.710173,50220,550000.0,1400.0,0.889,32.5,64.1,80.0,70.0,72.7,53.0,5.6,57.0,84.0,50.5,81.1,81.8,65.0,70.0,FRA
422,Hamburg,Germany,2013,17755.0,9.993681800000001,53.5510846,35868,1775099.5,755.0,0.935,31.1,72.8,90.0,80.0,79.2,61.8,37.3,90.07999999999998,92.1,43.8,81.2,86.8,85.0,70.0,DEU
429,Gibraltar,Gibraltar,2013,267349.0,-5.3535994,36.1407734,50650,34313.75,6.6,0.869885505257732,38.87940929917293,69.41948124980662,69.53020439301957,63.24978963501676,67.76822911104446,67.45616782514192,52.32086521275377,64.32249647213447,79.50850754145128,69.71202847628726,76.70915629813787,82.72269696477838,69.47591036643804,65.89319150658076,GIB
456,Reykjavik,Iceland,2013,346630.0,-21.81744,64.12652,54459,126799.0,275.0,0.927,25.4,72.1,90.0,83.0,67.65,72.7,36.2,93.65,91.5,58.9,75.8,87.8,65.0,60.0,ISL
475,Banda Aceh,Indonesia,2013,578446.0,95.323756,5.54829,59956,259913.0,3694.751717089304,0.687,40.0,56.9,30.0,30.0,43.85714285714285,83.4,89.2,89.5142857142857,50.2,50.8,75.5,75.0,35.0,50.0,IDN
483,Milano,Italy,2013,5976779.0,9.086356,45.802578,31173,1383461.666666667,182.0,0.881,34.9,60.6,50.0,39.0,55.4,55.5,25.3,66.9,76.9,52.0,80.2,86.8,80.0,60.0,ITA
502,Bologna,Italy,2013,2001132.31,11.3547975,44.48560870000001,36274,259068.7536666667,140.0,0.881,34.9,60.6,50.0,39.0,56.86666666666665,55.5,25.3,67.24666666666666,76.9,52.0,80.2,86.8,80.0,60.0,ITA
510,Udine,Italy,2013,613588.0,13.2333,46.0667,36518,99528.0,56.0,0.881,34.9,60.6,50.0,39.0,56.86666666666665,55.5,25.3,67.24666666666666,76.9,52.0,80.2,86.8,80.0,60.0,ITA
521,Yokohama,Japan,2013,21950000.0,139.6380256,35.4437078,31113,12136443.25,437.0,0.902,32.9,71.8,80.0,80.0,73.5,69.2,45.0,29.4,81.3,80.3,90.6,81.8,60.0,50.0,JPN
527,Nagoya,Japan,2013,13420000.0,136.906398,35.1814464,35902,2288790.5,326.0,0.902,32.9,71.8,80.0,80.0,73.20625,69.2,45.0,29.79999999999999,81.3,80.3,90.6,81.8,60.0,50.0,JPN
529,Kitakyushu,Japan,2013,16777000.0,130.875177,33.883498,44080,946338.0,491.95,0.9035652173913042,33.04444444444444,72.06521739130433,81.05652173913043,78.27391304347825,73.20625,68.22608695652174,51.05217391304348,29.79999999999999,82.5391304347826,81.30434782608695,87.08260869565218,82.0782608695652,65.21739130434783,53.91304347826087,JPN
535,Okayama,Japan,2013,6916000.0,133.919502,34.655146,55179,705917.0,790.0,0.902,32.9,71.8,80.0,80.0,73.20625,69.2,45.0,29.79999999999999,81.3,80.3,90.6,81.8,60.0,50.0,JPN
542,Vilnius ,Lithuania,2013,1994560.0,25.2796514,54.6871555,36154,542626.0,401.0,0.847,35.3,72.1,60.0,48.0,67.76822911104446,92.8,53.6,64.32249647213447,77.6,64.1,78.3,86.8,80.0,80.0,LTU
560,León de los Aldamas,Mexico,2013,5012133.0,-101.683659,21.122062,50359,1578626.0,1283.0,0.756,45.4,67.0,50.0,30.0,39.0,81.1,79.4,69.8,81.4,59.7,77.7,80.6,70.0,60.0,MEX
565,San Luis Potosí,Mexico,2013,4026722.0,-100.9855409,22.1564699,50369,824229.0,1482.0,0.756,47.32000000000001,67.0,50.0,30.0,39.0,81.1,79.4,69.8,81.4,59.7,77.7,80.6,70.0,60.0,MEX
570,Ayuntamiento de Celaya,Mexico,2013,3870274.0,-100.812,20.5222,839665,494304.0,3694.751717089304,0.756,47.32000000000001,67.0,50.0,30.0,39.0,81.1,79.4,69.8,81.4,59.7,77.7,80.6,70.0,60.0,MEX
591,Auckland ,New Zealand,2013,10472155.0,174.741788,-36.815328,43932,1614975.0,4894.0,0.914,38.87940929917293,81.4,95.0,95.0,88.4,71.5,33.2,98.3,99.9,89.5,83.3,86.8,80.0,80.0,NZL
597,Wellington,New Zealand,2013,1301739.0,174.776236,-41.28646029999999,43937,209287.25,290.1,0.914,38.87940929917293,81.4,95.0,95.0,83.5,71.5,33.2,98.6,99.9,89.5,83.3,86.8,80.0,80.0,NZL
607,Oslo,Norway,2013,1298000.0,10.7522454,59.9138688,14088,665929.5,454.0,0.944,26.4,70.5,90.0,90.0,84.65,51.0,40.3,98.1,92.6,44.7,76.9,89.3,70.0,60.0,NOR
656,Fafe,Portugal,2013,148789.0,-8.172861900000001,41.4508217,50671,49992.0,219.0,0.84,36.2,63.1,70.0,61.0,69.25714285714285,61.6,28.3,42.73571428571429,82.8,31.0,79.4,86.8,70.0,60.0,PRT
661,Barreiro,Portugal,2013,284933.0,-9.079072,38.660815,50679,78764.0,33.0,0.84,36.2,63.1,70.0,61.0,69.25714285714285,61.6,28.3,42.73571428571429,82.8,31.0,79.4,86.8,70.0,60.0,PRT
669,Águeda,Portugal,2013,258882.0,-8.445822,40.575302,55325,47729.0,335.0,0.84,36.2,63.1,70.0,61.0,69.25714285714285,61.6,28.3,42.73571428571429,82.8,31.0,79.4,86.8,70.0,60.0,PRT
673,Moita,Portugal,2013,96508.0,-8.65731,41.30284,55442,66029.0,55.0,0.84,36.2,63.1,70.0,61.0,69.25714285714285,61.6,28.3,42.73571428571429,82.8,31.0,79.4,86.8,70.0,60.0,PRT
702,Johannesburg,South Africa,2013,26.22,28.0473051,-26.2041028,31115,5101095.25,1645.0,0.685,63.0,61.8,50.0,41.0,63.24285714285715,70.5,69.2,72.62857142857142,74.7,55.6,75.8,76.3,45.0,60.0,ZAF
715,Durban,South Africa,2013,7008647.0,31.0218404,-29.8586804,35863,10652765.4,2292.0,0.685,63.2,61.8,50.0,41.0,63.24285714285715,70.5,69.2,72.62857142857142,74.7,55.6,75.8,76.3,45.0,60.0,ZAF
720,Pretoria,South Africa,2013,11984729.0,28.188056,-25.746111,49360,3268732.666666667,6298.0,0.685,63.10000000000001,61.8,50.0,41.0,63.24285714285715,70.5,69.2,72.62857142857142,74.7,55.6,75.8,76.3,45.0,60.0,ZAF
729,Seoul,South Korea,2013,48550952.0,126.9779692,37.56653499999999,31187,10127427.0,605.0,0.901,32.0,70.3,70.0,54.0,67.76822911104446,73.0,72.8,64.32249647213447,93.6,48.7,77.9,72.6,70.0,70.0,
733,Suwon ,South Korea,2013,5775155.0,127.0286009,37.2635727,44185,1234939.5,121.0,0.901,31.8,70.3,70.0,54.0,67.76822911104446,73.0,72.8,64.32249647213447,93.6,48.7,77.9,72.6,70.0,70.0,
742,Madrid,Spain,2013,10257048.0,-3.7037902,40.4167754,31171,2397950.5,604.0,0.882,36.2,68.0,70.0,62.0,53.9,53.9,43.0,26.9,80.3,54.3,79.9,86.8,80.0,70.0,ESP
789,Lausanne,Switzerland,2013,499573.0,6.6335,46.5198,54520,140000.0,55.0,0.946,32.5,81.0,90.0,88.0,82.10000000000001,68.1,63.8,95.89999999999999,75.8,87.9,86.2,90.0,80.0,80.0,CHE
795,Kaohsiung,Taiwan,2013,56234284.0,120.3230776,22.6238898,31112,2776348.6,2947.0,0.869885505257732,38.87940929917293,72.7,70.0,61.0,68.7277777777778,80.5,84.9,88.56481481481481,94.3,53.3,82.9,85.0,65.0,50.0,TWN
801,Taipei,Taiwan,2013,14364400.0,121.5488669,25.0465658,31446,2679476.8,272.0,0.869885505257732,38.87940929917293,72.7,70.0,61.0,69.2,80.5,84.9,90.8,94.3,53.3,82.9,85.0,65.0,50.0,TWN
812,Taoyuan ,Taiwan,2013,30073752.26,121.30098,24.993628,54395,2169145.5,1220.9,0.869885505257732,38.87940929917293,72.7,70.0,61.0,67.7,80.5,84.9,83.7,94.3,53.3,82.9,85.0,65.0,50.0,TWN
815,New Taipei,Taiwan,2013,18096066.0,121.4458,25.0111,56276,3985711.75,2053.0,0.869885505257732,38.87940929917293,72.7,70.0,61.0,69.2,80.5,84.9,90.8,94.3,53.3,82.9,85.0,65.0,50.0,TWN
821,Pingtung ,Taiwan,2013,4604805.0,120.54876,22.551976,57347,829113.6,2775.0,0.869885505257732,38.87940929917293,72.7,70.0,61.0,69.2,80.5,84.9,90.8,94.3,53.3,82.9,85.0,65.0,50.0,TWN
824,Yilan ,Taiwan,2013,8180556.68,121.73775,24.702107,61753,457180.5,2143.0,0.869885505257732,38.87940929917293,72.7,70.0,61.0,68.7277777777778,80.5,84.9,88.56481481481481,94.3,53.3,82.9,85.0,65.0,50.0,TWN
828,Bangkok,Thailand,2013,47240334.0,100.556,13.7712,31150,6593316.666666667,3694.751717089304,0.734,37.8,64.1,45.0,34.0,41.7,78.9,83.7,96.3,73.2,72.9,68.3,75.2,40.0,70.0,THA
830,Nakhon Sawan,Thailand,2013,355621.94,100.11996,15.698738,74309,83045.0,3694.751717089304,0.734,37.8,64.1,45.0,34.0,41.7,78.9,83.7,96.3,73.2,72.9,68.3,75.2,40.0,70.0,THA
838,Kadiovacik,Turkey,2013,467.45,26.553613,38.3434574,35755,226.8,5947.0,0.785,40.2,62.9,50.0,42.0,52.15,77.0,64.9,92.9,68.2,43.1,73.3,85.2,65.0,60.0,TUR
856,Birmingham,United Kingdom,2013,5199.7,-1.902907,52.480174,1850,1121380.0,267.8,0.921,33.2,74.8,90.0,78.0,93.0,57.0,27.7,40.4,94.1,71.6,72.4,86.8,90.0,80.0,GBR
862,London ,United Kingdom,2013,40190000.0,-0.078689,51.504858,3422,8797293.666666666,1572.0,0.921,33.2,74.8,90.0,78.0,93.8,57.0,27.7,53.5,94.1,71.6,72.4,86.8,90.0,80.0,GBR
871,Cardiff,United Kingdom,2013,2128000.0,-3.17909,51.481581,31052,362100.0,140.0,0.921,33.2,74.8,90.0,78.0,93.0,57.0,27.7,40.4,94.1,71.6,72.4,86.8,90.0,80.0,GBR
878,Manchester,United Kingdom,2013,14889318.0,-2.2484851,53.479324,35898,2802263.75,1277.0,0.921,33.2,74.8,90.0,78.0,93.0,57.0,27.7,40.4,94.1,71.6,72.4,86.8,90.0,80.0,GBR
881,Bournemouth,United Kingdom,2013,782650.0,-1.880769,50.719164,54521,260133.3333333333,108.0,0.921,33.2,74.8,90.0,78.0,93.0,57.0,27.7,40.4,94.1,71.6,72.4,86.8,90.0,80.0,GBR
885,Leicester,United Kingdom,2013,1719600.0,-1.1333,52.6333,54529,345617.3333333333,73.0,0.921,33.2,74.8,90.0,78.0,93.0,57.0,27.7,40.4,94.1,71.6,72.4,86.8,90.0,80.0,GBR
901,Atlanta,United States,2013,8857265.0,-84.3879824,33.7489954,1093,446978.5,343.0,0.918,40.7,76.0,85.0,71.0,76.50288600288599,69.3,47.8,54.01551226551214,90.5,95.5,75.0,86.4,70.0,70.0,USA
905,Austin,United States,2013,13700000.0,-97.7431,30.2672,1184,1051644.6,704.0,0.918,40.7,76.0,85.0,71.0,76.0,69.3,47.8,54.05,90.5,95.5,75.0,86.4,70.0,70.0,USA
915,New York,United States,2013,45993429.0,-74.00594129999999,40.7127837,3417,8512613.0,784.0,0.918,40.7,76.0,85.0,71.0,76.85,69.3,47.8,53.2,90.5,95.5,75.0,86.4,70.0,70.0,USA
923,Las Vegas,United States,2013,29555418.0,-115.1398296,36.1699412,10495,649770.75,136.0,0.918,40.7,76.0,85.0,71.0,76.86666666666666,69.3,47.8,53.73333333333333,90.5,95.5,75.0,86.4,70.0,70.0,USA
929,Los Angeles,United States,2013,32289089.0,-118.2436849,34.0522342,10894,3993752.0,1215.0,0.918,40.7,76.0,85.0,71.0,76.0,69.3,47.8,54.05,90.5,95.5,75.0,86.4,70.0,70.0,USA
938,"Portland, OR",United States,2013,7601940.0,-122.6762071,45.5234515,14874,719664.5,376.0,0.918,40.7,76.0,85.0,71.0,76.0,69.3,47.8,54.05,90.5,95.5,75.0,86.4,70.0,70.0,USA
947,Washington DC,United States,2013,8204579.0,-77.03687070000001,38.9071923,31090,690274.4,158.0,0.918,40.7,76.0,85.0,71.0,76.0,69.3,47.8,54.05,90.5,95.5,75.0,86.4,70.0,70.0,USA
969,Denver,United States,2013,9132000.0,-104.9847179,39.737567,32550,692162.4,401.0,0.918,40.7,76.0,85.0,71.0,76.9,69.3,47.8,54.8,90.5,95.5,75.0,86.4,70.0,70.0,USA
975,Boston,United States,2013,6135026.0,-71.05977320000001,42.35843079999999,35268,673450.0,124.0,0.918,40.7,76.0,85.0,71.0,76.0,69.3,47.8,54.05,90.5,95.5,75.0,86.4,70.0,70.0,USA
1004,Pittsburgh,United States,2013,4803046.0,-79.9958864,40.44062479999999,35877,303376.0,151.0,0.918,40.7,76.0,85.0,71.0,76.9,69.3,47.8,54.8,90.5,95.5,75.0,86.4,70.0,70.0,USA
1007,Minneapolis,United States,2013,4689049.0,-93.26666999999999,44.983334,35879,417166.4,139.8,0.918,40.7,76.0,85.0,71.0,76.9,69.3,47.8,54.8,90.5,95.5,75.0,86.4,70.0,70.0,USA
1016,San Antonio,United States,2013,15734762.0,-98.4936,29.4241,43905,1472366.0,426.0,0.918,40.7,76.0,85.0,71.0,76.50288600288599,69.3,47.8,54.01551226551214,90.5,95.5,75.0,86.4,70.0,70.0,USA
1019,Indianapolis,United States,2013,2160364.98,-86.17846899999999,39.767625,43907,859670.0,953.0,0.918,40.7,76.0,85.0,71.0,76.50288600288599,69.3,47.8,54.01551226551214,90.5,95.5,75.0,86.4,70.0,70.0,USA
1032,Kansas City,United States,2013,14420040.0,-94.573,39.1429,49330,487049.3333333333,3694.751717089304,0.918,40.7,76.0,85.0,71.0,75.1,69.3,47.8,53.3,90.5,95.5,75.0,86.4,70.0,70.0,USA
1035,Richmond,United States,2013,3188954.0,-77.436048,37.540725,49334,224042.8,162.0,0.918,40.7,76.0,85.0,71.0,76.9,69.3,47.8,54.8,90.5,95.5,75.0,86.4,70.0,70.0,USA
1045,Greensboro,United States,2013,4467691.0,-79.791975,36.072635,50541,292170.25,346.5,0.918,40.7,76.0,85.0,71.0,76.50288600288599,69.3,47.8,54.01551226551214,90.5,95.5,75.0,86.4,70.0,70.0,USA
1050,Oakland,United States,2013,1992444.0,-122.2708,37.8044,50560,423923.75,144.0,0.918,40.7,76.0,85.0,71.0,75.1,69.3,47.8,53.3,90.5,95.5,75.0,86.4,70.0,70.0,USA
1106,Iowa ,United States,2013,1298620.0,-91.5302,41.6611,54111,74580.75,65.5,0.918,40.7,76.0,85.0,71.0,76.50288600288599,69.3,47.8,54.01551226551214,90.5,95.5,75.0,86.4,70.0,70.0,USA
1126,West Palm Beach,United States,2013,1484767.0,-80.053375,26.715342,55801,110755.5,58.2,0.918,40.7,76.0,85.0,71.0,76.9,69.3,47.8,54.8,90.5,95.5,75.0,86.4,70.0,70.0,USA
1151,"Alton, IL",United States,2013,401079.0,-90.184276,38.890604,58627,26581.0,43.0,0.918,40.7,76.0,85.0,71.0,76.50288600288599,69.3,47.8,54.01551226551214,90.5,95.5,75.0,86.4,70.0,70.0,USA
1230,Caracas,Venezuela,2013,17424651.0,-66.8037185,10.4696404,31159,3518590.0,776.0,0.777,38.87940929917293,36.1,5.0,19.0,67.76822911104446,75.6,50.6,64.32249647213447,45.6,34.5,47.3,58.8,5.0,20.0,VEN
1233,Ho Chi Minh,Vietnam,2013,30012000.0,106.660172,10.762622,31164,8427700.0,2095.0,0.681,35.7,51.0,15.0,29.0,36.3,75.6,72.4,27.3,63.8,65.5,65.3,78.6,15.0,30.0,VNM
4,Buenos Aires,Argentina,2014,19667128.0,-58.3815931,-34.6037232,31155,3016817.0,202.0,0.836,41.6,44.6,15.0,29.5,39.6,63.5,49.9,56.4,53.9,44.9,60.0,68.9,30.0,30.0,ARG
10,Córdoba,Argentina,2014,5099175.0,-64.1888,-31.4201,50371,1495450.0,576.0,0.836,41.6,44.6,15.0,29.5,43.84666666666667,63.5,49.9,53.10666666666661,53.9,44.9,60.0,68.9,30.0,30.0,ARG
13,la Ciudad de Paraná,Argentina,2014,793211.8,-60.511547,-31.74132,54620,254022.5,3694.751717089304,0.836,41.6,44.6,15.0,29.5,44.5,63.5,49.9,52.6,53.9,44.9,60.0,68.9,30.0,30.0,ARG
15,Santa Fé,Argentina,2014,965990.75,-60.697294,-31.610658,55379,398927.0,3694.751717089304,0.836,41.6,44.6,15.0,29.5,43.84666666666667,63.5,49.9,53.10666666666661,53.9,44.9,60.0,68.9,30.0,30.0,ARG
16,Venado Tuerto,Argentina,2014,420095.92,-61.969016,-33.745557,60414,78977.0,3694.751717089304,0.836,41.6,44.6,15.0,29.5,43.84666666666667,63.5,49.9,53.10666666666661,53.9,44.9,60.0,68.9,30.0,30.0,ARG
17,San Carlos de Bariloche,Argentina,2014,905190.3799999999,-71.310278,-41.133472,60417,112887.0,3694.751717089304,0.836,41.6,44.6,15.0,29.5,43.84666666666667,63.5,49.9,53.10666666666661,53.9,44.9,60.0,68.9,30.0,30.0,ARG
20,"General Alvear, Buenos Aires",Argentina,2014,395490.62,-67.6955,-34.978,69834,46429.0,3694.751717089304,0.836,41.6,44.6,15.0,29.5,43.84666666666667,63.5,49.9,53.10666666666661,53.9,44.9,60.0,68.9,30.0,30.0,ARG
21,Arias,Argentina,2014,95216.70999999999,-62.402821,-33.640334,73648,7249.0,3694.751717089304,0.836,41.6,44.6,15.0,29.5,43.84666666666667,63.5,49.9,53.10666666666661,53.9,44.9,60.0,68.9,30.0,30.0,ARG
22,Armstrong,Argentina,2014,52083.05,-61.604083,-32.782897,73650,11484.0,3694.751717089304,0.836,41.6,44.6,15.0,29.5,43.84666666666667,63.5,49.9,53.10666666666661,53.9,44.9,60.0,68.9,30.0,30.0,ARG
23,Caseros,Argentina,2014,20938.19,-58.563463,-34.609483,73652,2339.0,3694.751717089304,0.836,41.6,44.6,15.0,29.5,44.5,63.5,49.9,52.6,53.9,44.9,60.0,68.9,30.0,30.0,ARG
25,Correa,Argentina,2014,58070.21,-60.85,-32.566667,73663,6146.0,3694.751717089304,0.836,41.6,44.6,15.0,29.5,43.84666666666667,63.5,49.9,53.10666666666661,53.9,44.9,60.0,68.9,30.0,30.0,ARG
28,Malabrigo,Argentina,2014,49149.11,-59.970068,-29.348924,73668,7479.5,3694.751717089304,0.836,41.6,44.6,15.0,29.5,44.5,63.5,49.9,52.6,53.9,44.9,60.0,68.9,30.0,30.0,ARG
30,Godoy Cruz,Argentina,2014,443795.38,-68.858396,-32.928627,73671,195647.5,3694.751717089304,0.836,41.6,44.6,15.0,29.5,43.84666666666667,63.5,49.9,53.10666666666661,53.9,44.9,60.0,68.9,30.0,30.0,ARG
31,Chañar Ladeado,Argentina,2014,39023.24,-62.041291,-33.324484,73678,5415.0,3694.751717089304,0.836,41.6,44.6,15.0,29.5,43.84666666666667,63.5,49.9,53.10666666666661,53.9,44.9,60.0,68.9,30.0,30.0,ARG
32,Cruz Alta,Argentina,2014,27730.33,-53.605355,-28.645488,73679,7344.0,3694.751717089304,0.836,41.6,44.6,15.0,29.5,43.84666666666667,63.5,49.9,53.10666666666661,53.9,44.9,60.0,68.9,30.0,30.0,ARG
33,Carcarana,Argentina,2014,104047.77,-61.157817,-32.857186,73680,16432.0,3694.751717089304,0.836,41.6,44.6,15.0,29.5,43.84666666666667,63.5,49.9,53.10666666666661,53.9,44.9,60.0,68.9,30.0,30.0,ARG
35,Villa General Belgrano,Argentina,2014,56816.69,-64.55941,-31.977665,73690,8257.0,3694.751717089304,0.836,41.6,44.6,15.0,29.5,43.84666666666667,63.5,49.9,53.10666666666661,53.9,44.9,60.0,68.9,30.0,30.0,ARG
36,La Rioja,Argentina,2014,634302.97,-66.855993,-29.419379,73693,180995.0,3694.751717089304,0.836,41.6,44.6,15.0,29.5,43.84666666666667,63.5,49.9,53.10666666666661,53.9,44.9,60.0,68.9,30.0,30.0,ARG
37,Chacabuco,Argentina,2014,662343.5599999999,-60.47151899999999,-34.642084,73694,51254.0,3694.751717089304,0.836,41.6,44.6,15.0,29.5,44.5,63.5,49.9,52.6,53.9,44.9,60.0,68.9,30.0,30.0,ARG
39,Uranga,Argentina,2014,9847.64,-60.707459,-33.26541,73695,907.5,3694.751717089304,0.836,41.6,44.6,15.0,29.5,44.5,63.5,49.9,52.6,53.9,44.9,60.0,68.9,30.0,30.0,ARG
42,San Carlos Sud,Argentina,2014,24696.92,-61.100028,-31.755693,73701,2167.5,3694.751717089304,0.836,41.6,44.6,15.0,29.5,44.5,63.5,49.9,52.6,53.9,44.9,60.0,68.9,30.0,30.0,ARG
44,Totoras,Argentina,2014,116102.18,-61.167371,-32.583479,73707,10292.0,3694.751717089304,0.836,41.6,44.6,15.0,29.5,43.84666666666667,63.5,49.9,53.10666666666661,53.9,44.9,60.0,68.9,30.0,30.0,ARG
45,Camilo Aldao,Argentina,2014,91022.88,-62.09586700000001,-33.126319,73712,5209.0,3694.751717089304,0.836,41.6,44.6,15.0,29.5,44.5,63.5,49.9,52.6,53.9,44.9,60.0,68.9,30.0,30.0,ARG
47,San Miguel,Argentina,2014,756164.42,-58.71185799999999,-34.543055,73713,281775.0,3694.751717089304,0.836,41.6,44.6,15.0,29.5,44.5,63.5,49.9,52.6,53.9,44.9,60.0,68.9,30.0,30.0,ARG
49,Cosquín,Argentina,2014,37604.54,-64.470381,-31.246813,73715,19815.0,3694.751717089304,0.836,41.6,44.6,15.0,29.5,43.84666666666667,63.5,49.9,53.10666666666661,53.9,44.9,60.0,68.9,30.0,30.0,ARG
50,Arteaga,Argentina,2014,27857.38,-61.79147099999999,-33.090412,73724,3452.5,3694.751717089304,0.836,41.6,44.6,15.0,29.5,44.5,63.5,49.9,52.6,53.9,44.9,60.0,68.9,30.0,30.0,ARG
52,Guaminí,Argentina,2014,794110.6799999999,-62.418471,-37.012608,73725,11826.0,3694.751717089304,0.836,41.6,44.6,15.0,29.5,43.84666666666667,63.5,49.9,53.10666666666661,53.9,44.9,60.0,68.9,30.0,30.0,ARG
53,Monte Buey,Argentina,2014,48468.27,-62.454528,-32.914263,73732,6395.0,3694.751717089304,0.836,41.6,44.6,15.0,29.5,44.5,63.5,49.9,52.6,53.9,44.9,60.0,68.9,30.0,30.0,ARG
55,Tafi Viejo,Argentina,2014,106117.74,-65.267029,-26.732479,73736,56407.0,3694.751717089304,0.836,41.6,44.6,15.0,29.5,43.84666666666667,63.5,49.9,53.10666666666661,53.9,44.9,60.0,68.9,30.0,30.0,ARG
57,Salliqueló,Argentina,2014,203695.49,-62.959201,-36.751463,73788,8714.0,3694.751717089304,0.836,41.6,44.6,15.0,29.5,43.84666666666667,63.5,49.9,53.10666666666661,53.9,44.9,60.0,68.9,30.0,30.0,ARG
59,Juana Koslay,Argentina,2014,44050.65,-66.230158,-33.263763,73801,15912.0,3694.751717089304,0.836,41.6,44.6,15.0,29.5,43.84666666666667,63.5,49.9,53.10666666666661,53.9,44.9,60.0,68.9,30.0,30.0,ARG
61,Herrera,Argentina,2014,37701.46,-63.06671,-28.48147,73803,1767.0,3694.751717089304,0.836,41.6,44.6,15.0,29.5,43.84666666666667,63.5,49.9,53.10666666666661,53.9,44.9,60.0,68.9,30.0,30.0,ARG
63,Corrientes,Argentina,2014,791744.47,-58.830635,-27.469213,834219,363088.0,3694.751717089304,0.836,41.6,44.6,15.0,29.5,43.84666666666667,63.5,49.9,53.10666666666661,53.9,44.9,60.0,68.9,30.0,30.0,ARG
64,Bell Ville,Argentina,2014,96806.11,-62.688857,-32.630508,834226,35281.0,3694.751717089304,0.836,41.6,44.6,15.0,29.5,43.84666666666667,63.5,49.9,53.10666666666661,53.9,44.9,60.0,68.9,30.0,30.0,ARG
65,Bragado,Argentina,2014,668545.8,-60.489941,-35.115475,834229,41336.0,3694.751717089304,0.836,41.6,44.6,15.0,29.5,43.84666666666667,63.5,49.9,53.10666666666661,53.9,44.9,60.0,68.9,30.0,30.0,ARG
66,Centeno,Argentina,2014,18734.57,-61.410416,-32.296913,834238,3116.0,3694.751717089304,0.836,41.6,44.6,15.0,29.5,43.84666666666667,63.5,49.9,53.10666666666661,53.9,44.9,60.0,68.9,30.0,30.0,ARG
68,Guaymallén,Argentina,2014,775221.69,-68.8047,-32.902821,834255,304037.5,3694.751717089304,0.836,41.6,44.6,15.0,29.5,44.5,63.5,49.9,52.6,53.9,44.9,60.0,68.9,30.0,30.0,ARG
70,Inriville,Argentina,2014,52603.15,-62.23124,-32.947289,834258,3719.0,3694.751717089304,0.836,41.6,44.6,15.0,29.5,43.84666666666667,63.5,49.9,53.10666666666661,53.9,44.9,60.0,68.9,30.0,30.0,ARG
71,Lobos,Argentina,2014,457265.28,-59.097528,-35.185361,834259,37705.5,3694.751717089304,0.836,41.6,44.6,15.0,29.5,44.5,63.5,49.9,52.6,53.9,44.9,60.0,68.9,30.0,30.0,ARG
73,Olavarría,Argentina,2014,3309377.78,-60.32335,-36.893717,834260,111708.0,3694.751717089304,0.836,41.6,44.6,15.0,29.5,43.84666666666667,63.5,49.9,53.10666666666661,53.9,44.9,60.0,68.9,30.0,30.0,ARG
74,Patagones,Argentina,2014,664557.76,-62.980361,-40.798639,834277,31294.0,3694.751717089304,0.836,41.6,44.6,15.0,29.5,43.84666666666667,63.5,49.9,53.10666666666661,53.9,44.9,60.0,68.9,30.0,30.0,ARG
76,Pérez,Argentina,2014,90153.21,-60.773169,-32.999141,834280,29204.0,3694.751717089304,0.836,41.6,44.6,15.0,29.5,43.84666666666667,63.5,49.9,53.10666666666661,53.9,44.9,60.0,68.9,30.0,30.0,ARG
77,Rauch,Argentina,2014,1149552.31,-59.089786,-36.774918,834289,15520.0,3694.751717089304,0.836,41.6,44.6,15.0,29.5,43.84666666666667,63.5,49.9,53.10666666666661,53.9,44.9,60.0,68.9,30.0,30.0,ARG
78,San Antonio de Areco,Argentina,2014,182599.95,-59.473866,-34.243617,834301,24389.5,3694.751717089304,0.836,41.6,44.6,15.0,29.5,44.5,63.5,49.9,52.6,53.9,44.9,60.0,68.9,30.0,30.0,ARG
80,San Martín de los Andes,Argentina,2014,241533.26,-71.352444,-40.15721,834403,33275.0,3694.751717089304,0.836,41.6,44.6,15.0,29.5,44.5,63.5,49.9,52.6,53.9,44.9,60.0,68.9,30.0,30.0,ARG
82,Soldini,Argentina,2014,12056.6,-60.754718,-33.020688,834405,3212.0,3694.751717089304,0.836,41.6,44.6,15.0,29.5,43.84666666666667,63.5,49.9,53.10666666666661,53.9,44.9,60.0,68.9,30.0,30.0,ARG
118,Melbourne,Australia,2014,5805437.0,144.96328,-37.814107,31109,154863.4,38.0,0.933,34.4,82.0,90.0,87.7,90.93333333333334,64.2,62.6,85.03333333333332,94.6,79.2,80.5,86.4,85.0,90.0,AUS
135,Canberra,Australia,2014,3977800.0,149.1244,-35.3075,43928,416250.0,2358.0,0.933,34.4,82.0,90.0,87.7,90.93333333333334,64.2,62.6,85.03333333333332,94.6,79.2,80.5,86.4,85.0,90.0,AUS
159,Brussels,Belgium,2014,4254080.0,4.348780000000001,50.8505,35854,182190.0,3694.751717089304,0.918,28.1,69.9,80.0,74.2,67.76822911104446,44.8,14.8,64.32249647213447,89.9,72.7,79.5,87.8,85.0,70.0,BEL
172,Belo Horizonte,Brazil,2014,2878873.0,-43.9333,-19.9167,35848,2463719.666666667,331.0,0.756,52.1,56.9,50.0,37.9,50.88260869565219,68.8,54.1,18.70434782608696,53.8,49.8,69.9,69.3,55.0,60.0,BRA
175,Fortaleza,Brazil,2014,4559979.4095,-48.3936,-10.7183,35865,1322937.241,3694.751717089304,0.756,52.1,56.9,50.0,37.9,50.88260869565219,68.8,54.1,18.70434782608696,53.8,49.8,69.9,69.3,55.0,60.0,BRA
193,João Pessoa,Brazil,2014,2504267.0,-34.8639,-7.168819999999999,50394,723515.0,3694.751717089304,0.756,52.1,56.9,50.0,37.9,50.88260869565219,68.8,54.1,18.70434782608696,53.8,49.8,69.9,69.3,55.0,60.0,BRA
198,Londrina,Brazil,2014,1264906.0,-51.1505,-23.3356,54625,532570.0,3694.751717089304,0.756,52.1,56.9,50.0,37.9,50.88260869565219,68.8,54.1,18.70434782608696,53.8,49.8,69.9,69.3,55.0,60.0,BRA
206,Extrema,Brazil,2014,131931.0,-46.328,-22.840262,60273,34943.0,243.1,0.756,52.1,56.9,50.0,37.9,50.88260869565219,68.8,54.1,18.70434782608696,53.8,49.8,69.9,69.3,55.0,60.0,BRA
216,Vancouver,Canada,2014,2442602.0,-123.1139268,49.261226,20113,631418.0,115.0,0.918,33.2,80.2,90.0,87.7,75.76666666666667,79.7,47.3,81.53333333333333,89.3,83.1,76.3,88.3,80.0,80.0,CAN
225,Toronto,Canada,2014,20043240.0,-79.3831843,43.653226,31117,2833632.0,634.0,0.918,33.2,80.2,90.0,87.7,77.1,79.7,47.3,81.2,89.3,83.1,76.3,88.3,80.0,80.0,CAN
235,Montréal,Canada,2014,11219680.0,-73.5539925,45.50866989999999,35894,1954472.75,500.0,0.918,33.2,80.2,90.0,87.7,77.0816091954023,79.7,47.3,81.20804597701147,89.3,83.1,76.3,88.3,80.0,80.0,CAN
242,Edmonton,Canada,2014,16576702.0,-113.4909267,53.544389,43912,934644.6,684.0,0.918,33.2,80.2,90.0,87.7,75.76666666666667,79.7,47.3,81.53333333333333,89.3,83.1,76.3,88.3,80.0,80.0,CAN
255,"London, ON",Canada,2014,3070000.0,-81.2497,42.9837,50558,385564.4,421.0,0.918,33.2,80.2,90.0,87.7,78.94999999999999,79.7,47.3,80.75,89.3,83.1,76.3,88.3,80.0,80.0,CAN
259,"St Catharines, ON",Canada,2014,954541.0,-79.2469,43.1594,50559,133460.0,98.0,0.918,33.2,80.2,90.0,87.7,77.1,79.7,47.3,81.2,89.3,83.1,76.3,88.3,80.0,80.0,CAN
262,Saskatoon,Canada,2014,3493456.0,-106.670046,52.133214,50568,270914.0,233.0,0.918,33.2,80.2,90.0,87.7,78.94999999999999,79.7,47.3,80.75,89.3,83.1,76.3,88.3,80.0,80.0,CAN
267,Windsor,Canada,2014,2475703.0,-83.036363,42.314937,50578,220614.0,146.3,0.918,33.2,80.2,90.0,87.7,77.1,79.7,47.3,81.2,89.3,83.1,76.3,88.3,80.0,80.0,CAN
301,Bogotá,Colombia,2014,13217521.08,-74.07583299999999,4.598056,31154,7818299.75,1776.0,0.753,52.6,70.7,50.0,33.2,25.2,80.6,74.9,89.8,85.2,80.5,78.8,78.8,75.0,70.0,COL
311,Ibagué,Colombia,2014,2330487.0,-75.239965,4.448517,60374,564077.0,1439.0,0.753,52.6,70.7,50.0,33.2,30.94,80.6,74.9,83.84000000000002,85.2,80.5,78.8,78.8,75.0,70.0,COL
335,Copenhagen,Denmark,2014,1626573.0,12.5683371,55.6760968,31009,604991.5,86.0,0.935,28.4,76.1,90.0,93.7,83.6,39.3,0.5,96.7,98.1,91.2,80.0,87.8,90.0,90.0,DNK
340,Hoeje-Taastrup Kommune,Denmark,2014,297000.0,12.2898,55.656328,58489,50298.0,78.0,0.935,28.4,76.1,90.0,93.7,76.63333333333333,39.3,0.5,96.26666666666667,98.1,91.2,80.0,87.8,90.0,90.0,DNK
347,Hjørring,Denmark,2014,417000.0,9.995764,57.456779,58610,65308.0,7.5,0.935,28.4,76.1,90.0,93.7,79.73541666666662,39.3,0.5,96.4427083333333,98.1,91.2,80.0,87.8,90.0,90.0,DNK
356,Gladsaxe Kommune,Denmark,2014,362078.0,12.488686,55.733461,59165,68344.2,24.9,0.935,28.4,76.1,90.0,93.7,76.63333333333333,39.3,0.5,96.26666666666667,98.1,91.2,80.0,87.8,90.0,90.0,DNK
361,Hvidovre,Denmark,2014,219396.0,12.475386,55.642522,60433,52864.25,25.0,0.935,28.4,76.1,90.0,93.7,76.05,39.3,0.5,96.05000000000001,98.1,91.2,80.0,87.8,90.0,90.0,DNK
364,Egedal,Denmark,2014,179535.0,12.238733,55.79504499999999,62855,42805.66666666666,126.0,0.935,28.4,76.1,90.0,93.7,83.6,39.3,0.5,96.7,98.1,91.2,80.0,87.8,90.0,90.0,DNK
370,Santiago de Guayaquil,Ecuador,2014,6787374.0,-79.922359,-2.170998,36045,2478786.333333333,5047.0,0.756,45.0,48.0,20.0,26.0,20.2,79.8,41.8,32.1,52.8,52.0,66.1,71.8,30.0,40.0,ECU
381,Helsinki,Finland,2014,2789724.0,24.9410248,60.17332439999999,8242,639758.4,214.0,0.928,26.8,73.4,90.0,93.4,82.2,65.1,8.9,81.6,93.6,46.5,78.9,87.8,90.0,80.0,FIN
401,Paris,France,2014,5195663.0,2.3522219,48.856614,31175,2242245.333333333,105.0,0.893,32.3,63.5,80.0,69.9,72.7,48.4,5.6,60.8,79.9,51.8,76.1,82.8,70.0,70.0,FRA
423,Hamburg,Germany,2014,17465.0,9.993681800000001,53.5510846,35868,1775099.5,755.0,0.937,30.9,73.4,90.0,80.1,79.2,61.2,38.2,90.07999999999998,89.9,46.4,80.8,87.8,90.0,70.0,DEU
435,Athens,Greece,2014,4711576.0,23.727539,37.98381,31149,664046.0,39.0,0.875,35.8,55.7,40.0,33.2,57.55,65.9,19.2,64.3,75.8,53.9,76.3,82.8,60.0,50.0,GRC
452,Hong Kong,Hong Kong,2014,44900000.0,114.1398015,22.2880809,31169,7398480.0,1104.0,0.926,38.87940929917293,90.1,90.0,82.3,84.3,93.0,89.7,100.0,98.9,95.5,82.0,90.0,90.0,90.0,HKG
470,Jakarta ,Indonesia,2014,27780000.0,106.845599,-6.2087634,31166,10216080.5,662.0,0.69,39.4,58.5,30.0,28.0,39.3,83.4,89.8,90.1,54.8,47.8,76.4,74.8,40.0,60.0,IDN
472,Bogor ,Indonesia,2014,2193642.0,106.806039,-6.597147000000001,54329,1052065.25,118.5,0.69,39.4,58.5,30.0,28.0,45.2,83.4,89.8,89.4,54.8,47.8,76.4,74.8,40.0,60.0,IDN
487,Torino,Italy,2014,3496156.0,7.6868565,45.070312,35886,885408.6,130.0,0.882,34.7,60.9,50.0,38.5,55.4,55.5,25.6,66.9,75.5,52.5,78.9,87.8,85.0,60.0,ITA
490,Napoli,Italy,2014,2559322.0,-81.7948103,26.1420358,36158,983755.0,3694.751717089304,0.882,34.7,60.9,50.0,38.5,56.86666666666665,55.5,25.6,67.24666666666666,75.5,52.5,78.9,87.8,85.0,60.0,ITA
499,Ravenna,Italy,2014,11419.0,12.518037,41.913028,36263,235996.0,683.0,0.882,34.7,60.9,50.0,38.5,56.86666666666665,55.5,25.6,67.24666666666666,75.5,52.5,78.9,87.8,85.0,60.0,ITA
503,Firenze,Italy,2014,1630308.0,11.2558,43.7696,36285,378237.0,102.4,0.882,34.7,60.9,50.0,38.5,56.86666666666665,55.5,25.6,67.24666666666666,75.5,52.5,78.9,87.8,85.0,60.0,ITA
514,Tokyo,Japan,2014,70125000.0,139.6917064,35.6894875,31111,13765448.2,2188.0,0.906,33.04444444444444,72.4,80.0,77.8,73.5,69.2,47.1,29.4,80.0,79.8,87.5,82.4,70.0,50.0,JPN
531,Hiroshima,Japan,2014,8675437.0,132.455293,34.385203,49386,1191030.0,907.0,0.906,33.04444444444444,72.4,80.0,77.8,73.20625,69.2,47.1,29.79999999999999,80.0,79.8,87.5,82.4,70.0,50.0,JPN
536,Amman ,Jordan,2014,7215407.0,35.928372,31.945367,54337,3777487.25,800.0,0.729,38.87940929917293,69.2,60.0,45.6,57.3,94.0,66.9,27.7,62.0,72.9,81.3,79.6,70.0,60.0,JOR
543,Vilnius ,Lithuania,2014,1944330.0,25.2796514,54.6871555,36154,542626.0,401.0,0.859,37.7,73.0,60.0,49.9,67.76822911104446,92.9,55.9,64.32249647213447,85.7,59.0,78.6,87.8,80.0,80.0,LTU
545,Petaling Jaya,Malaysia,2014,3496.0,101.595,3.1279,54361,658611.0,3694.751717089304,0.791,41.1,69.6,55.0,44.3,67.0,84.6,75.6,77.10000000000001,85.6,78.5,81.0,76.4,55.0,60.0,MYS
555,Mexico City,Mexico,2014,23655110.96,-102.552784,23.634501,31172,8916511.666666666,1485.0,0.761,48.7,66.8,50.0,29.7,39.0,80.9,78.9,69.8,76.8,58.3,77.4,85.6,70.0,60.0,MEX
558,Guadalajara,Mexico,2014,3905713.0,-103.35,20.6597,35867,3162635.0,3694.751717089304,0.761,48.7,66.8,50.0,29.7,39.0,80.9,78.9,69.8,76.8,58.3,77.4,85.6,70.0,60.0,MEX
562,Hermosillo,Mexico,2014,6930283.0,-110.961,29.0892,50361,820292.5,3694.751717089304,0.761,48.7,66.8,50.0,29.7,39.0,80.9,78.9,69.8,76.8,58.3,77.4,85.6,70.0,60.0,MEX
581,Rotterdam,Netherlands,2014,28202000.0,4.4777325,51.9244201,31179,481798.1165,208.0,0.932,28.6,74.2,90.0,88.0,72.0,51.7,25.6,85.6,89.7,59.6,79.9,87.8,90.0,80.0,NLD
592,Auckland ,New Zealand,2014,8388416.0,174.741788,-36.815328,43932,1614975.0,4894.0,0.916,38.87940929917293,81.2,95.0,94.0,88.4,71.2,32.3,98.3,96.1,90.2,86.3,86.8,80.0,80.0,NZL
603,Lagos,Nigeria,2014,29426266.0,3.379206,6.524379,31167,22910709.0,3577.0,0.523,38.87940929917293,54.3,30.0,22.7,33.2,85.0,74.5,87.2,48.0,66.4,73.1,63.8,40.0,40.0,NGA
611,Oslo,Norway,2014,1125349.0,10.7522454,59.9138688,14088,665929.5,454.0,0.9486000000000001,26.76,72.18,88.62,88.78,84.65,53.34,40.66,98.1,90.58,48.42,76.67999999999999,88.74000000000001,72.0,60.0,NOR
636,Warsaw,Poland,2014,11721774.0,21.0122287,52.2296756,31185,1695805.75,517.0,0.858,32.8,67.0,60.0,54.8,58.0,76.1,43.2,76.1,70.1,60.4,77.8,87.8,70.0,70.0,POL
642,Torres Vedras ,Portugal,2014,275646.0,-9.30148,38.763669,19233,79465.0,407.0,0.847,35.6,63.5,70.0,61.1,69.25714285714285,60.1,26.8,42.73571428571429,84.9,34.6,79.3,87.8,70.0,60.0,PRT
646,Lisbon,Portugal,2014,1934361.0,-9.1393366,38.7222524,36159,547753.0,85.0,0.847,35.6,63.5,70.0,61.1,70.1,60.1,26.8,46.0,84.9,34.6,79.3,87.8,70.0,60.0,PRT
658,Santarém,Portugal,2014,245886.0,-8.685994,39.236669,50672,61476.0,553.0,0.847,35.6,63.5,70.0,61.1,69.25714285714285,60.1,26.8,42.73571428571429,84.9,34.6,79.3,87.8,70.0,60.0,PRT
660,Faro,Portugal,2014,246.0,19.1424789,57.9441874,50673,61059.0,202570.0,0.847,35.6,63.5,70.0,61.1,69.25714285714285,60.1,26.8,42.73571428571429,84.9,34.6,79.3,87.8,70.0,60.0,PRT
662,Barreiro,Portugal,2014,290849.0,-9.079072,38.660815,50679,78764.0,33.0,0.847,35.6,63.5,70.0,61.1,69.25714285714285,60.1,26.8,42.73571428571429,84.9,34.6,79.3,87.8,70.0,60.0,PRT
666,Guimarães,Portugal,2014,401323.0,-8.292241,41.444266,55324,154056.6666666667,241.0,0.847,35.6,63.5,70.0,61.1,69.25714285714285,60.1,26.8,42.73571428571429,84.9,34.6,79.3,87.8,70.0,60.0,PRT
690,Moscow,Russia,2014,74753792.0,37.6173,55.755826,31174,12541168.33333333,2511.0,0.807,37.5,51.9,25.0,22.1,67.76822911104446,85.6,61.5,64.32249647213447,70.0,55.8,69.4,74.6,25.0,30.0,RUS
697,Singapore,Singapore,2014,48432920.0,103.819836,1.352083,35993,5616666.666666667,719.0,0.926,38.87940929917293,89.4,90.0,91.9,91.5,91.2,91.2,80.7,96.8,96.5,81.5,90.0,85.0,80.0,SGP
699,Ljubljana,Slovenia,2014,2079758.0,14.505751,46.05694699999999,43920,290641.75,275.0,0.894,25.7,62.7,60.0,61.0,52.1,58.9,22.6,74.44999999999999,85.4,51.0,80.3,87.8,70.0,50.0,SVN
703,Johannesburg,South Africa,2014,24716713.0,28.0473051,-26.2041028,31115,5101095.25,1645.0,0.693,63.0,62.5,50.0,41.6,63.24285714285715,68.7,69.1,72.62857142857142,74.5,54.4,75.3,76.1,55.0,60.0,ZAF
716,Durban,South Africa,2014,22587081.0,31.0218404,-29.8586804,35863,10652765.4,2292.0,0.693,63.0,62.5,50.0,41.6,63.24285714285715,68.7,69.1,72.62857142857142,74.5,54.4,75.3,76.1,55.0,60.0,ZAF
723,Nelson Mandela Bay ,South Africa,2014,12232310.0,25.568108,-33.745241,49363,1152115.0,1950.0,0.693,63.0,62.5,50.0,41.6,63.24285714285715,68.7,69.1,72.62857142857142,74.5,54.4,75.3,76.1,55.0,60.0,ZAF
725,KwaDukuza,South Africa,2014,983112.0,31.266,-29.366965,73645,276719.0,3694.751717089304,0.693,63.0,62.5,50.0,41.6,63.24285714285715,68.7,69.1,72.62857142857142,74.5,54.4,75.3,76.1,55.0,60.0,ZAF
734,Barcelona,Spain,2014,3329110.0,2.177506,41.382271,1499,1617601.5,101.0,0.888,36.1,67.2,70.0,62.6,57.95,54.0,38.7,31.5,77.3,52.2,79.9,87.8,80.0,70.0,ESP
743,Madrid,Spain,2014,9236196.0,-3.7037902,40.4167754,31171,2397950.5,604.0,0.888,36.1,67.2,70.0,62.6,53.9,54.0,38.7,26.9,77.3,52.2,79.9,87.8,80.0,70.0,ESP
746,Valencia,Spain,2014,1734423.59,-0.3763,39.4699,35887,791143.5,3694.751717089304,0.888,36.1,67.2,70.0,62.6,55.63571428571428,54.0,38.7,28.87142857142857,77.3,52.2,79.9,87.8,80.0,70.0,ESP
750,Zaragoza,Spain,2014,1785603.75,-0.8890853000000001,41.6488226,46473,674097.4,969.0,0.888,36.1,67.2,70.0,62.6,55.63571428571428,54.0,38.7,28.87142857142857,77.3,52.2,79.9,87.8,80.0,70.0,ESP
782,Basel,Switzerland,2014,783932.0,7.5928,47.5619,31151,198651.75,37.0,0.942,32.5,81.6,90.0,88.1,82.10000000000001,68.9,65.7,95.89999999999999,75.4,87.4,85.2,90.0,85.0,80.0,CHE
786,Zurich,Switzerland,2014,2053157.0,8.539182499999999,47.36864979999999,35449,421304.0,92.0,0.942,32.5,81.6,90.0,88.1,82.1,68.9,65.7,95.9,75.4,87.4,85.2,90.0,85.0,80.0,CHE
796,Kaohsiung,Taiwan,2014,58755764.13,120.3230776,22.6238898,31112,2776348.6,2947.0,0.869885505257732,38.87940929917293,73.9,70.0,59.7,68.7277777777778,80.3,84.7,88.56481481481481,93.9,53.1,81.7,85.8,70.0,60.0,TWN
802,Taipei,Taiwan,2014,14957404.0,121.5488669,25.0465658,31446,2679476.8,272.0,0.869885505257732,38.87940929917293,73.9,70.0,59.7,69.2,80.3,84.7,90.8,93.9,53.1,81.7,85.8,70.0,60.0,TWN
806,Tainan ,Taiwan,2014,21458525.0,120.2269,22.9999,54386,1883590.0,2192.0,0.869885505257732,38.87940929917293,73.9,70.0,59.7,68.45,80.3,84.7,87.25,93.9,53.1,81.7,85.8,70.0,60.0,TWN
813,Taoyuan,Taiwan,2014,35764526.0,121.30098,24.993628,54395,2169145.5,1220.9,0.869885505257732,38.87940929917293,73.9,70.0,59.7,67.7,80.3,84.7,83.7,93.9,53.1,81.7,85.8,70.0,60.0,TWN
816,New Taipei ,Taiwan,2014,17233924.0,121.4458,25.0111,56276,3985711.75,2053.0,0.869885505257732,38.87940929917293,73.9,70.0,59.7,69.2,80.3,84.7,90.8,93.9,53.1,81.7,85.8,70.0,60.0,TWN
825,Yilan County,Taiwan,2014,8691225.0,121.73775,24.702107,61753,457180.5,2143.0,0.869885505257732,38.87940929917293,73.9,70.0,59.7,68.7277777777778,80.3,84.7,88.56481481481481,93.9,53.1,81.7,85.8,70.0,60.0,TWN
839,Kadiovacik,Turkey,2014,456.81,26.553613,38.3434574,35755,226.8,5947.0,0.796,41.2,64.9,50.0,44.0,52.15,77.5,63.5,92.9,67.6,59.7,71.8,84.5,70.0,60.0,TUR
844,Urla,Turkey,2014,368.0,26.553613,38.3434574,35755,226.8,5947.0,0.7931250000000001,41.275,63.72500000000001,49.4375,44.025,52.15,76.6,64.61250000000001,92.9,65.9125,47.25,71.98750000000001,83.4625,71.25,58.75,TUR
845,Bursa,Turkey,2014,13176596.0,29.060964,40.188528,44076,2994521.0,3694.751717089304,0.796,41.2,64.9,50.0,44.0,52.17692307692307,77.5,63.5,93.11538461538461,67.6,59.7,71.8,84.5,70.0,60.0,TUR
849,İzmir,Turkey,2014,21869346.0,27.142826,38.423734,74673,4320519.0,3694.751717089304,0.796,41.2,64.9,50.0,44.0,52.17692307692307,77.5,63.5,93.11538461538461,67.6,59.7,71.8,84.5,70.0,60.0,TUR
852,Kampala,Uganda,2014,3055230.86,32.58252,0.347596,44077,1631210.0,3694.751717089304,0.519,38.87940929917293,59.9,30.0,23.8,34.6,79.1,87.3,78.1,45.1,87.4,71.0,75.4,60.0,40.0,UGA
863,London ,United Kingdom,2014,40096000.0,-0.078689,51.504858,3422,8797293.666666666,1572.0,0.925,34.0,74.9,90.0,76.4,93.8,56.6,29.5,53.5,92.0,73.1,73.5,87.8,90.0,80.0,GBR
872,Cardiff,United Kingdom,2014,1959900.0,-3.17909,51.481581,31052,362100.0,140.0,0.925,34.0,74.9,90.0,76.4,93.0,56.6,29.5,40.4,92.0,73.1,73.5,87.8,90.0,80.0,GBR
879,Manchester,United Kingdom,2014,16892757.0,-2.2484851,53.479324,35898,2802263.75,1277.0,0.925,34.0,74.9,90.0,76.4,93.0,56.6,29.5,40.4,92.0,73.1,73.5,87.8,90.0,80.0,GBR
882,Bournemouth,United Kingdom,2014,380799.0,-1.880769,50.719164,54521,260133.3333333333,108.0,0.925,34.0,74.9,90.0,76.4,93.0,56.6,29.5,40.4,92.0,73.1,73.5,87.8,90.0,80.0,GBR
902,Atlanta,United States,2014,9024235.0,-84.3879824,33.7489954,1093,446978.5,343.0,0.92,41.5,75.5,80.0,72.0,76.50288600288599,65.8,48.1,54.01551226551214,89.2,97.2,75.4,86.8,70.0,70.0,USA
916,New York City,United States,2014,49385508.0,-74.00594129999999,40.7127837,3417,8512613.0,784.0,0.92,41.5,75.5,80.0,72.0,76.85,65.8,48.1,53.2,89.2,97.2,75.4,86.8,70.0,70.0,USA
924,Las Vegas,United States,2014,29657130.0,-115.1398296,36.1699412,10495,649770.75,136.0,0.92,41.5,75.5,80.0,72.0,76.86666666666666,65.8,48.1,53.73333333333333,89.2,97.2,75.4,86.8,70.0,70.0,USA
932,New Orleans,United States,2014,4558575.0,-90.0715,29.9511,13067,391137.0,468.0,0.92,41.5,75.5,80.0,72.0,75.1,65.8,48.1,53.3,89.2,97.2,75.4,86.8,70.0,70.0,USA
939,"Portland, OR",United States,2014,6974544.0,-122.6762071,45.5234515,14874,719664.5,376.0,0.92,41.5,75.5,80.0,72.0,76.0,65.8,48.1,54.05,89.2,97.2,75.4,86.8,70.0,70.0,USA
944,Seattle,United States,2014,3471000.0,-122.3320708,47.6062095,16581,705538.0,3692.0,0.92,41.5,75.5,80.0,72.0,76.50288600288599,65.8,48.1,54.01551226551214,89.2,97.2,75.4,86.8,70.0,70.0,USA
953,Houston,United States,2014,33428301.0,-95.36938959999999,29.7601927,31108,2302199.6,1625.0,0.92,41.5,75.5,80.0,72.0,78.6,65.8,48.1,53.1,89.2,97.2,75.4,86.8,70.0,70.0,USA
958,Philadelphia,United States,2014,17355479.0,-75.16378900000001,39.952335,31181,1558435.666666667,367.0,0.92,41.5,75.5,80.0,72.0,76.50288600288599,65.8,48.1,54.01551226551214,89.2,97.2,75.4,86.8,70.0,70.0,USA
970,Denver,United States,2014,8942000.0,-104.9847179,39.737567,32550,692162.4,401.0,0.92,41.5,75.5,80.0,72.0,76.9,65.8,48.1,54.8,89.2,97.2,75.4,86.8,70.0,70.0,USA
976,Boston,United States,2014,6066182.0,-71.05977320000001,42.35843079999999,35268,673450.0,124.0,0.92,41.5,75.5,80.0,72.0,76.0,65.8,48.1,54.05,89.2,97.2,75.4,86.8,70.0,70.0,USA
984,St Louis,United States,2014,8703679.12,-90.1994042,38.6270025,35393,311066.0,170.9,0.92,41.5,75.5,80.0,72.0,76.9,65.8,48.1,54.8,89.2,97.2,75.4,86.8,70.0,70.0,USA
988,Baltimore,United States,2014,7230859.0,-76.6121893,39.2903848,35853,608360.5,210.0,0.92,41.5,75.5,80.0,72.0,75.1,65.8,48.1,53.3,89.2,97.2,75.4,86.8,70.0,70.0,USA
1008,Minneapolis,United States,2014,4794708.0,-93.26666999999999,44.983334,35879,417166.4,139.8,0.92,41.5,75.5,80.0,72.0,76.9,65.8,48.1,54.8,89.2,97.2,75.4,86.8,70.0,70.0,USA
1017,San Antonio,United States,2014,16498864.0,-98.4936,29.4241,43905,1472366.0,426.0,0.92,41.5,75.5,80.0,72.0,76.50288600288599,65.8,48.1,54.01551226551214,89.2,97.2,75.4,86.8,70.0,70.0,USA
1023,Columbus,United States,2014,9103603.0,-82.9987942,39.9611755,43910,872181.8,563.0,0.92,41.5,75.5,80.0,72.0,76.86666666666666,65.8,48.1,53.73333333333333,89.2,97.2,75.4,86.8,70.0,70.0,USA
1039,Nashville and Davidson ,United States,2014,13461292.0,-86.7816,36.1627,49335,679678.6666666666,1367.0,0.92,41.5,75.5,80.0,72.0,75.1,65.8,48.1,53.3,89.2,97.2,75.4,86.8,70.0,70.0,USA
1042,Rochester,United States,2014,1800000.0,-77.6109,43.161,49342,209304.5,96.0,0.92,41.5,75.5,80.0,72.0,76.50288600288599,65.8,48.1,54.01551226551214,89.2,97.2,75.4,86.8,70.0,70.0,USA
1047,Lexington,United States,2014,6450693.0,-84.50371640000002,38.04058370000001,50548,3041410.942493827,3694.751717089304,0.92,41.5,75.5,80.0,72.0,76.50288600288599,65.8,48.1,54.01551226551214,89.2,97.2,75.4,86.8,70.0,70.0,USA
1053,Chula Vista,United States,2014,1143624.13,-117.084,32.64,50562,265070.0,3694.751717089304,0.92,41.5,75.5,80.0,72.0,76.50288600288599,65.8,48.1,54.01551226551214,89.2,97.2,75.4,86.8,70.0,70.0,USA
1059,Aspen and Pitkin County,United States,2014,394341.0,-106.837,39.195,52897,8715.0,20.0,0.92,41.5,75.5,80.0,72.0,75.1,65.8,48.1,53.3,89.2,97.2,75.4,86.8,70.0,70.0,USA
1083,Hollywood,United States,2014,874200.85,-80.1495,26.0112,54082,149189.0,3694.751717089304,0.92,41.5,75.5,80.0,72.0,76.50288600288599,65.8,48.1,54.01551226551214,89.2,97.2,75.4,86.8,70.0,70.0,USA
1084,Savannah,United States,2014,3609546.0,-81.0998,32.0835,54085,145014.5,175.0,0.92,41.5,75.5,80.0,72.0,76.50288600288599,65.8,48.1,54.01551226551214,89.2,97.2,75.4,86.8,70.0,70.0,USA
1092,Albany,United States,2014,1217091.0,-73.7562,42.6526,54102,97856.0,55.0,0.921,40.0,77.4,82.15,75.2,78.6,71.3,57.55,53.1,87.55,92.1,77.35,86.75,80.0,75.0,USA
1109,Flagstaff,United States,2014,1211617.47,-111.6311,35.1992,54113,72411.0,165.0,0.92,41.5,75.5,80.0,72.0,76.86666666666666,65.8,48.1,53.73333333333333,89.2,97.2,75.4,86.8,70.0,70.0,USA
1119,Reno,United States,2014,4437665.0,-119.8138,39.5296,54128,241125.0,288.0,0.92,41.5,75.5,80.0,72.0,76.50288600288599,65.8,48.1,54.01551226551214,89.2,97.2,75.4,86.8,70.0,70.0,USA
1141,"Somerville, MA",United States,2014,586308.0,-71.082647,42.393449,58531,79989.66666666667,10.3,0.92,41.5,75.5,80.0,72.0,76.9,65.8,48.1,54.8,89.2,97.2,75.4,86.8,70.0,70.0,USA
1177,"Emeryville, CA",United States,2014,167728.0,-122.285247,37.83131599999999,61790,11483.0,5.2,0.92,41.5,75.5,80.0,72.0,76.0,65.8,48.1,54.05,89.2,97.2,75.4,86.8,70.0,70.0,USA
1187,Broward,United States,2014,16880089.22,80.3659,26.1901,63941,1894822.0,3694.751717089304,0.92,41.5,75.5,80.0,72.0,76.9,65.8,48.1,54.8,89.2,97.2,75.4,86.8,70.0,70.0,USA
1189,"Miami Beach, FL",United States,2014,1207364.0,-80.130045,25.790654,63999,91825.0,18.1,0.92,41.5,75.5,80.0,72.0,76.0,65.8,48.1,54.05,89.2,97.2,75.4,86.8,70.0,70.0,USA
1206,Key West,United States,2014,399592.0,24.5551,81.78,74423,25777.5,3694.751717089304,0.9211671794871797,41.0790275923454,76.19046153846166,81.52323076923058,73.66984615384621,76.50288600288599,66.92399999999984,53.88107692307693,54.01551226551214,86.93861538461553,93.84923076923106,77.68384615384593,86.69738461538459,75.41538461538461,72.72307692307692,USA
1231,Caracas,Venezuela,2014,17621788.0,-66.8037185,10.4696404,31159,3518590.0,776.0,0.775,38.87940929917293,36.3,5.0,16.5,67.76822911104446,75.3,51.8,64.32249647213447,43.4,33.7,49.7,62.7,5.0,20.0,VEN
5,Buenos Aires,Argentina,2015,13193864.0,-58.3815931,-34.6037232,31155,3016817.0,202.0,0.84,41.75,44.1,15.0,34.0,39.6,66.8,41.2,56.4,52.8,43.3,59.6,68.8,30.0,30.0,ARG
8,Mendoza,Argentina,2015,54024257.0,-68.8458,-32.8894,50357,115041.0,3694.751717089304,0.84,41.3,44.1,15.0,34.0,44.5,66.8,41.2,52.6,52.8,43.3,59.6,68.8,30.0,30.0,ARG
18,Rio Grande,Argentina,2015,810086.0,-67.7002,-53.786,60419,84250.66666666667,938.0,0.84,41.57812500000001,44.1,15.0,34.0,43.84666666666667,66.8,41.2,53.10666666666661,52.8,43.3,59.6,68.8,30.0,30.0,ARG
27,Villa Pehuenia,Argentina,2015,27616.28,-71.187208,-38.879673,73665,1611.0,3694.751717089304,0.84,41.57812500000001,44.1,15.0,34.0,43.84666666666667,66.8,41.2,53.10666666666661,52.8,43.3,59.6,68.8,30.0,30.0,ARG
119,Melbourne,Australia,2015,4372420.0,144.96328,-37.814107,31109,154863.4,38.0,0.938,34.55,81.4,90.0,81.0,90.93333333333334,63.7,61.8,85.03333333333332,94.1,81.6,85.3,86.4,80.0,90.0,AUS
126,Sydney,Australia,2015,3556529.0,151.2069902,-33.8674869,31114,227878.8,26.0,0.938,34.48571428571428,81.4,90.0,81.0,90.93333333333334,63.7,61.8,85.03333333333332,94.1,81.6,85.3,86.4,80.0,90.0,AUS
136,Canberra,Australia,2015,4003900.0,149.1244,-35.3075,43928,416250.0,2358.0,0.938,34.4,81.4,90.0,81.0,90.93333333333334,63.7,61.8,85.03333333333332,94.1,81.6,85.3,86.4,80.0,90.0,AUS
141,Perth,Australia,2015,1151807.0,115.861,-31.9526,43934,29764.0,3694.751717089304,0.938,34.48571428571428,81.4,90.0,81.0,91.38130081300818,63.7,61.8,85.11544715447154,94.1,81.6,85.3,86.4,80.0,90.0,AUS
142,Hobart,Australia,2015,338925.0,147.281446,-42.890054,53254,51593.0,7791.0,0.938,34.48571428571428,81.4,90.0,81.0,93.15,63.7,61.8,84.44999999999999,94.1,81.6,85.3,86.4,80.0,90.0,AUS
173,Belo Horizonte,Brazil,2015,4494883.0,-43.9333,-19.9167,35848,2463719.666666667,331.0,0.756,51.9,56.6,50.0,42.0,50.88260869565219,68.4,50.9,18.70434782608696,53.6,52.1,69.4,69.6,50.0,60.0,BRA
177,Recife,Brazil,2015,2329792.0,-62.7284414,8.3127386,35872,1619576.0,218.0,0.756,51.9,56.6,50.0,42.0,49.7,68.4,50.9,22.8,53.6,52.1,69.4,69.6,50.0,60.0,BRA
195,Guaratinguetá,Brazil,2015,548195.98,-45.19422,-22.808027,54610,3041410.942493827,751.0,0.756,51.9,56.6,50.0,42.0,50.88260869565219,68.4,50.9,18.70434782608696,53.6,52.1,69.4,69.6,50.0,60.0,BRA
199,Londrina,Brazil,2015,1180446.0,-51.1505,-23.3356,54625,532570.0,3694.751717089304,0.756,51.9,56.6,50.0,42.0,50.88260869565219,68.4,50.9,18.70434782608696,53.6,52.1,69.4,69.6,50.0,60.0,BRA
204,Niterói,Brazil,2015,1729602.0,-43.118381,-22.892857,57509,380938.007,133.1,0.756,51.9,56.6,50.0,42.0,55.5,68.4,50.9,7.7,53.6,52.1,69.4,69.6,50.0,60.0,BRA
210,Sofia,Bulgaria,2015,2785108.0,23.3219,42.6977,43917,1402665.5,3694.751717089304,0.809,38.6,66.8,30.0,41.0,42.5,91.0,64.5,94.3,68.5,76.6,83.2,88.0,65.0,60.0,BGR
212,Stara Zagora,Bulgaria,2015,1104.0,25.634464,42.425777,58461,325963.0,5151.1,0.809,38.6,66.8,30.0,41.0,42.5,91.0,64.5,94.3,68.5,76.6,83.2,88.0,65.0,60.0,BGR
217,Vancouver,Canada,2015,2499107.0,-123.1139268,49.261226,20113,631418.0,115.0,0.921,33.7,79.1,90.0,81.0,75.76666666666667,79.9,48.3,81.53333333333333,89.0,76.1,77.9,88.4,80.0,80.0,CAN
228,Calgary,Canada,2015,18207232.0,-114.070846,51.04861500000001,35475,1247651.2,848.0,0.921,33.7,79.1,90.0,81.0,75.76666666666667,79.9,48.3,81.53333333333333,89.0,76.1,77.9,88.4,80.0,80.0,CAN
236,Montréal,Canada,2015,10837623.0,-73.5539925,45.50866989999999,35894,1954472.75,500.0,0.921,33.7,79.1,90.0,81.0,77.0816091954023,79.9,48.3,81.20804597701147,89.0,76.1,77.9,88.4,80.0,80.0,CAN
243,Edmonton,Canada,2015,13357063.0,-113.4909267,53.544389,43912,934644.6,684.0,0.921,33.7,79.1,90.0,81.0,75.76666666666667,79.9,48.3,81.53333333333333,89.0,76.1,77.9,88.4,80.0,80.0,CAN
277,Durham,Canada,2015,6424752.0,-78.9288,43.9368,58868,673070.0,3694.751717089304,0.921,33.7,79.1,90.0,81.0,77.0816091954023,79.9,48.3,81.20804597701147,89.0,76.1,77.9,88.4,80.0,80.0,CAN
278,Mississauga,Canada,2015,6600475.7135,43.589,-79.6441,59538,721599.0,3694.751717089304,0.921,33.7,79.1,90.0,81.0,78.94999999999999,79.9,48.3,80.75,89.0,76.1,77.9,88.4,80.0,80.0,CAN
283,North Vancouver,Canada,2015,187055.0,-123.07328,49.32699,59669,52622.0,11.8,0.921,33.7,79.1,90.0,81.0,77.0816091954023,79.9,48.3,81.20804597701147,89.0,76.1,77.9,88.4,80.0,80.0,CAN
285,"Ajax, ON",Canada,2015,1234211.0,-79.02037299999999,43.850855,60602,114638.5,67.1,0.921,33.7,79.1,90.0,81.0,77.0816091954023,79.9,48.3,81.20804597701147,89.0,76.1,77.9,88.4,80.0,80.0,CAN
302,Bogotá ,Colombia,2015,12359324.53,-74.07583299999999,4.598056,31154,7818299.75,1776.0,0.756,51.0,71.7,50.0,36.0,25.2,80.3,76.0,89.8,81.5,81.7,80.1,81.2,80.0,70.0,COL
304,Medellín,Colombia,2015,2784141.0,-75.5735,6.22729,35873,1699962.774,3694.751717089304,0.756,51.0,71.7,50.0,36.0,30.94,80.3,76.0,83.84000000000002,81.5,81.7,80.1,81.2,80.0,70.0,COL
308,Santiago de Cali,Colombia,2015,4174608.0,-76.53198499999999,3.451647,36037,2420340.5,566.0,0.756,51.0,71.7,50.0,36.0,30.94,80.3,76.0,83.84000000000002,81.5,81.7,80.1,81.2,80.0,70.0,COL
336,Copenhagen,Denmark,2015,1450358.0,12.5683371,55.6760968,31009,604991.5,86.0,0.933,28.2,76.3,95.0,91.0,83.6,39.6,1.8,96.7,97.4,92.1,87.6,88.0,90.0,80.0,DNK
339,Sonderborg,Denmark,2015,1806679.0,9.792178,54.913811,58488,74623.5,496.6,0.933,28.2,76.3,95.0,91.0,79.73541666666662,39.6,1.8,96.4427083333333,97.4,92.1,87.6,88.0,90.0,80.0,DNK
345,City of Ærøskøbing,Denmark,2015,225.0,10.404684,54.89145600000001,58609,6146.0,88.0,0.933,28.2,76.3,95.0,91.0,79.73541666666662,39.6,1.8,96.4427083333333,97.4,92.1,87.6,88.0,90.0,80.0,DNK
348,Elsinore,Denmark,2015,294549.0,12.5921,56.0308,58671,62395.0,119.0,0.933,28.2,76.3,95.0,91.0,73.15,39.6,1.8,96.05000000000001,97.4,92.1,87.6,88.0,90.0,80.0,DNK
351,Hørsholm,Denmark,2015,117829.758,12.5049,55.8835,58797,24973.5,3694.751717089304,0.933,28.2,76.3,95.0,91.0,83.6,39.6,1.8,96.7,97.4,92.1,87.6,88.0,90.0,80.0,DNK
357,Gladsaxe,Denmark,2015,331282.0,12.488686,55.733461,59165,68344.2,24.9,0.933,28.2,76.3,95.0,91.0,76.63333333333333,39.6,1.8,96.26666666666667,97.4,92.1,87.6,88.0,90.0,80.0,DNK
365,Egedal,Denmark,2015,217097.0,12.238733,55.79504499999999,62855,42805.66666666666,126.0,0.933,28.2,76.3,95.0,91.0,83.6,39.6,1.8,96.7,97.4,92.1,87.6,88.0,90.0,80.0,DNK
367,Fredensborg,Denmark,2015,196090.19,12.4058,55.9747,63543,40488.5,3694.751717089304,0.933,28.2,76.3,95.0,91.0,83.6,39.6,1.8,96.7,97.4,92.1,87.6,88.0,90.0,80.0,DNK
372,Quito,Ecuador,2015,5759189.0,-78.5167,-0.2333,42178,2239191.0,4232.0,0.764,46.0,49.2,15.0,35.0,20.2,79.1,51.0,32.1,51.4,51.3,68.2,71.4,30.0,40.0,ECU
376,Loja,Ecuador,2015,423878.0,-3.99313,-79.2042,69848,214855.0,3694.751717089304,0.764,46.0,49.2,15.0,35.0,20.2,79.1,51.0,32.1,51.4,51.3,68.2,71.4,30.0,40.0,ECU
389,Turku,Finland,2015,840800.0,22.2666303,60.4518126,50154,189400.0,246.0,0.93,27.1,73.4,90.0,89.0,82.7,66.4,3.6,81.1,92.6,54.8,79.9,88.0,90.0,80.0,FIN
393,Lahti,Finland,2015,717200.0,25.65,60.9833,54402,119884.4,517.0,0.93,27.1,73.4,90.0,89.0,82.7,66.4,3.6,77.3,92.6,54.8,79.9,88.0,90.0,80.0,FIN
395,Espoo,Finland,2015,1233581.0,24.6559,60.205491,54409,281732.25,312.0,0.93,27.1,73.4,90.0,89.0,82.2,66.4,3.6,81.6,92.6,54.8,79.9,88.0,90.0,80.0,FIN
416,Heidelberg,Germany,2015,806000.0,8.672433999999999,49.398752,31165,147427.4,109.0,0.938,31.7,73.8,90.0,78.0,79.5,60.8,40.1,89.9,88.2,51.2,81.5,88.0,90.0,70.0,DEU
427,Greifswald,Germany,2015,311.86,12.3923,54.0865,69999,57971.0,3694.751717089304,0.938,31.7,73.8,90.0,78.0,79.2,60.8,40.1,90.07999999999998,88.2,51.2,81.5,88.0,90.0,70.0,DEU
428,Accra,Ghana,2015,1092173.0,-0.16819,5.56543,36039,2325264.333333333,3694.751717089304,0.59,38.87940929917293,63.0,50.0,46.0,67.76822911104446,84.6,70.8,64.32249647213447,62.5,56.9,69.2,64.8,65.0,60.0,GHA
430,Gibraltar,Gibraltar,2015,263352.0,-5.3535994,36.1407734,50650,34313.75,6.6,0.869885505257732,38.87940929917293,69.41948124980662,69.53020439301957,63.24978963501676,67.76822911104446,67.45616782514192,52.32086521275377,64.32249647213447,79.50850754145128,69.71202847628726,76.70915629813787,82.72269696477838,69.47591036643804,65.89319150658076,GIB
436,Athens,Greece,2015,5053422.0,23.727539,37.98381,31149,664046.0,39.0,0.877,36.0,54.0,40.0,40.0,57.55,64.2,0.0,64.3,73.3,51.6,77.8,83.0,60.0,50.0,GRC
453,Hong Kong,Hong Kong,2015,68456394.0,114.1398015,22.2880809,31169,7398480.0,1104.0,0.93,38.87940929917293,89.6,90.0,75.0,84.3,93.2,89.7,100.0,100.0,95.9,81.8,90.0,90.0,90.0,HKG
461,Rajkot,India,2015,1747356.0,70.80216,22.303895,54305,1442038.0,3694.751717089304,0.624,38.87940929917293,54.6,55.0,36.0,44.4,79.4,78.3,11.0,43.3,48.7,65.3,64.6,35.0,40.0,IND
482,Roma,Italy,2015,16631327.0,12.4801802,41.8723889,31110,2148980.4035,1285.0,0.882,35.4,61.7,55.0,43.0,56.86666666666665,54.2,23.2,67.24666666666666,71.9,55.4,81.2,88.0,85.0,60.0,ITA
484,Milano,Italy,2015,6354849.060000001,9.086356,45.802578,31173,1383461.666666667,182.0,0.882,35.4,61.7,55.0,43.0,55.4,54.2,23.2,66.9,71.9,55.4,81.2,88.0,85.0,60.0,ITA
493,Venezia,Italy,2015,1418344.0,12.3155151,45.4408474,36254,261169.75,414.0,0.882,35.4,61.7,55.0,43.0,60.9,54.2,23.2,68.2,71.9,55.4,81.2,88.0,85.0,60.0,ITA
522,Yokohama,Japan,2015,20375000.0,139.6380256,35.4437078,31113,12136443.25,437.0,0.908,33.26666666666667,73.3,80.0,74.0,73.5,68.7,47.1,29.4,84.1,90.2,86.7,82.6,70.0,50.0,JPN
546,Iskandar ,Malaysia,2015,15.47,100.992084,5.714476,54388,1978333.333333333,2217.0,0.796,41.1,70.8,55.0,50.0,67.3,84.4,74.0,76.5,93.5,75.7,80.8,80.0,55.0,60.0,MYS
563,Hermosillo,Mexico,2015,6930283.0,-110.961,29.0892,50361,820292.5,3694.751717089304,0.766,48.7,66.4,50.0,34.0,39.0,77.8,78.0,69.8,71.5,59.9,77.6,85.6,70.0,60.0,MEX
566,San Luis Potosí,Mexico,2015,1320629.99,-100.9855409,22.1564699,50369,824229.0,1482.0,0.766,47.32000000000001,66.4,50.0,34.0,39.0,77.8,78.0,69.8,71.5,59.9,77.6,85.6,70.0,60.0,MEX
571,Ciudad Madero,Mexico,2015,947150.0,-97.833105,22.276876,848145,220000.0,47.9,0.766,47.32000000000001,66.4,50.0,34.0,39.0,77.8,78.0,69.8,71.5,59.9,77.6,85.6,70.0,60.0,MEX
577,Amsterdam,Netherlands,2015,4471000.0,4.895167900000001,52.3702157,31148,848091.25,219.0,0.934,28.2,73.7,90.0,83.0,71.64999999999999,51.8,23.8,85.16666666666667,84.3,66.3,79.8,88.0,90.0,80.0,NLD
582,Rotterdam,Netherlands,2015,31512000.0,4.4777325,51.9244201,31179,481798.1165,208.0,0.934,28.2,73.7,90.0,83.0,72.0,51.8,23.8,85.6,84.3,66.3,79.8,88.0,90.0,80.0,NLD
593,Auckland,New Zealand,2015,10207661.0,174.741788,-36.815328,43932,1614975.0,4894.0,0.921,38.87940929917293,82.1,95.0,91.0,88.4,70.4,43.0,98.3,95.5,91.4,87.6,86.8,80.0,80.0,NZL
598,Wellington,New Zealand,2015,1084979.0,174.776236,-41.28646029999999,43937,209287.25,290.1,0.921,38.87940929917293,82.1,95.0,91.0,83.5,70.4,43.0,98.6,95.5,91.4,87.6,86.8,80.0,80.0,NZL
